[{"photo_id": 52729036809, "title": "Diego Rivera's America, SFMOMA; 2023 Jan 2", "latitude": 37.785916, "longitude": -122.401214, "time_taken": "2023-01-02 12:43:09", "hour_taken": 12, "photo_url": "https://farmNone.staticflickr.com/None/52729036809_0109562588.jpg", "author_id": "13875847@N00", "author_name": "karlsbad"}, {"photo_id": 52728783436, "title": "Diego Rivera's America, SFMOMA; 2023 Jan 2", "latitude": 37.785916, "longitude": -122.401223, "time_taken": "2023-01-02 12:43:18", "hour_taken": 12, "photo_url": "https://farmNone.staticflickr.com/None/52728783436_93a21af737.jpg", "author_id": "13875847@N00", "author_name": "karlsbad"}, {"photo_id": 52728261092, "title": "Diego Rivera's America, SFMOMA; 2023 Jan 2", "latitude": 37.785911, "longitude": -122.401223, "time_taken": "2023-01-02 12:43:27", "hour_taken": 12, "photo_url": "https://farmNone.staticflickr.com/None/52728261092_bef1546ee5.jpg", "author_id": "13875847@N00", "author_name": "karlsbad"}, {"photo_id": 52729262038, "title": "Diego Rivera's America, SFMOMA; 2023 Jan 2", "latitude": 37.785927, "longitude": -122.401231, "time_taken": "2023-01-02 12:43:48", "hour_taken": 12, "photo_url": "https://farmNone.staticflickr.com/None/52729262038_a07a7a9090.jpg", "author_id": "13875847@N00", "author_name": "karlsbad"}, {"photo_id": 52729192235, "title": "Diego Rivera's America, SFMOMA; 2023 Jan 2", "latitude": 37.785933, "longitude": -122.401223, "time_taken": "2023-01-02 12:44:00", "hour_taken": 12, "photo_url": "https://farmNone.staticflickr.com/None/52729192235_200402869f.jpg", "author_id": "13875847@N00", "author_name": "karlsbad"}, {"photo_id": 52728779546, "title": "Diego Rivera's America, SFMOMA; 2023 Jan 2", "latitude": 37.785938, "longitude": -122.401209, "time_taken": "2023-01-02 12:44:08", "hour_taken": 12, "photo_url": "https://farmNone.staticflickr.com/None/52728779546_bd848c2056.jpg", "author_id": "13875847@N00", "author_name": "karlsbad"}, {"photo_id": 52729190270, "title": "Diego Rivera's America, SFMOMA; 2023 Jan 2", "latitude": 37.78595, "longitude": -122.401192, "time_taken": "2023-01-02 12:44:13", "hour_taken": 12, "photo_url": "https://farmNone.staticflickr.com/None/52729190270_35572d222a.jpg", "author_id": "13875847@N00", "author_name": "karlsbad"}, {"photo_id": 52729189160, "title": "Diego Rivera's America, SFMOMA; 2023 Jan 2", "latitude": 37.785952, "longitude": -122.401162, "time_taken": "2023-01-02 12:44:27", "hour_taken": 12, "photo_url": "https://farmNone.staticflickr.com/None/52729189160_00a31e0c3d.jpg", "author_id": "13875847@N00", "author_name": "karlsbad"}, {"photo_id": 52729256908, "title": "Diego Rivera's America, SFMOMA; 2023 Jan 2", "latitude": 37.78595, "longitude": -122.401162, "time_taken": "2023-01-02 12:44:38", "hour_taken": 12, "photo_url": "https://farmNone.staticflickr.com/None/52729256908_0f5e530835.jpg", "author_id": "13875847@N00", "author_name": "karlsbad"}, {"photo_id": 52729029554, "title": "Diego Rivera's America, SFMOMA; 2023 Jan 2", "latitude": 37.785938, "longitude": -122.401231, "time_taken": "2023-01-02 12:45:00", "hour_taken": 12, "photo_url": "https://farmNone.staticflickr.com/None/52729029554_408cf1225c.jpg", "author_id": "13875847@N00", "author_name": "karlsbad"}, {"photo_id": 52728252832, "title": "Diego Rivera's America, SFMOMA; 2023 Jan 2", "latitude": 37.785927, "longitude": -122.401231, "time_taken": "2023-01-02 12:45:07", "hour_taken": 12, "photo_url": "https://farmNone.staticflickr.com/None/52728252832_9cc98c6334.jpg", "author_id": "13875847@N00", "author_name": "karlsbad"}, {"photo_id": 52728772756, "title": "Diego Rivera's America, SFMOMA; 2023 Jan 2", "latitude": 37.785922, "longitude": -122.4012, "time_taken": "2023-01-02 12:45:36", "hour_taken": 12, "photo_url": "https://farmNone.staticflickr.com/None/52728772756_6444c06eb0.jpg", "author_id": "13875847@N00", "author_name": "karlsbad"}, {"photo_id": 52729252748, "title": "Diego Rivera's America, SFMOMA; 2023 Jan 2", "latitude": 37.785927, "longitude": -122.401192, "time_taken": "2023-01-02 12:45:46", "hour_taken": 12, "photo_url": "https://farmNone.staticflickr.com/None/52729252748_5693ddfce7.jpg", "author_id": "13875847@N00", "author_name": "karlsbad"}, {"photo_id": 52729183290, "title": "Diego Rivera's America, SFMOMA; 2023 Jan 2", "latitude": 37.78593, "longitude": -122.401184, "time_taken": "2023-01-02 12:45:52", "hour_taken": 12, "photo_url": "https://farmNone.staticflickr.com/None/52729183290_25a9234161.jpg", "author_id": "13875847@N00", "author_name": "karlsbad"}, {"photo_id": 52728246602, "title": "Diego Rivera's America, SFMOMA; 2023 Jan 2", "latitude": 37.786013, "longitude": -122.401123, "time_taken": "2023-01-02 12:46:23", "hour_taken": 12, "photo_url": "https://farmNone.staticflickr.com/None/52728246602_e72cea77a7.jpg", "author_id": "13875847@N00", "author_name": "karlsbad"}, {"photo_id": 52729020764, "title": "Diego Rivera's America, SFMOMA; 2023 Jan 2", "latitude": 37.785991, "longitude": -122.401117, "time_taken": "2023-01-02 12:46:43", "hour_taken": 12, "photo_url": "https://farmNone.staticflickr.com/None/52729020764_377b066640.jpg", "author_id": "13875847@N00", "author_name": "karlsbad"}, {"photo_id": 52728761626, "title": "Diego Rivera's America, SFMOMA; 2023 Jan 2", "latitude": 37.785991, "longitude": -122.401123, "time_taken": "2023-01-02 12:46:51", "hour_taken": 12, "photo_url": "https://farmNone.staticflickr.com/None/52728761626_f2c0d51772.jpg", "author_id": "13875847@N00", "author_name": "karlsbad"}, {"photo_id": 52728755641, "title": "Diego Rivera's America, SFMOMA; 2023 Jan 2", "latitude": 37.785994, "longitude": -122.401109, "time_taken": "2023-01-02 12:48:13", "hour_taken": 12, "photo_url": "https://farmNone.staticflickr.com/None/52728755641_40f656ec1c.jpg", "author_id": "13875847@N00", "author_name": "karlsbad"}, {"photo_id": 52728754116, "title": "Diego Rivera's America, SFMOMA; 2023 Jan 2", "latitude": 37.786, "longitude": -122.401117, "time_taken": "2023-01-02 12:48:22", "hour_taken": 12, "photo_url": "https://farmNone.staticflickr.com/None/52728754116_5e143e6626.jpg", "author_id": "13875847@N00", "author_name": "karlsbad"}, {"photo_id": 52729006709, "title": "Diego Rivera's America, SFMOMA; 2023 Jan 2", "latitude": 37.785977, "longitude": -122.401039, "time_taken": "2023-01-02 12:49:50", "hour_taken": 12, "photo_url": "https://farmNone.staticflickr.com/None/52729006709_e06ecd64af.jpg", "author_id": "13875847@N00", "author_name": "karlsbad"}, {"photo_id": 52729164235, "title": "Diego Rivera's America, SFMOMA; 2023 Jan 2", "latitude": 37.785983, "longitude": -122.401056, "time_taken": "2023-01-02 12:50:11", "hour_taken": 12, "photo_url": "https://farmNone.staticflickr.com/None/52729164235_ed5eb7f283.jpg", "author_id": "13875847@N00", "author_name": "karlsbad"}, {"photo_id": 52728227977, "title": "Diego Rivera's America, SFMOMA; 2023 Jan 2", "latitude": 37.786022, "longitude": -122.401039, "time_taken": "2023-01-02 12:50:53", "hour_taken": 12, "photo_url": "https://farmNone.staticflickr.com/None/52728227977_1b7099bc5f.jpg", "author_id": "13875847@N00", "author_name": "karlsbad"}, {"photo_id": 52729228763, "title": "Diego Rivera's America, SFMOMA; 2023 Jan 2", "latitude": 37.785972, "longitude": -122.401031, "time_taken": "2023-01-02 12:51:10", "hour_taken": 12, "photo_url": "https://farmNone.staticflickr.com/None/52729228763_efc12d7428.jpg", "author_id": "13875847@N00", "author_name": "karlsbad"}, {"photo_id": 52728223592, "title": "Diego Rivera's America, SFMOMA; 2023 Jan 2", "latitude": 37.785972, "longitude": -122.401039, "time_taken": "2023-01-02 12:51:28", "hour_taken": 12, "photo_url": "https://farmNone.staticflickr.com/None/52728223592_d4ffca5654.jpg", "author_id": "13875847@N00", "author_name": "karlsbad"}, {"photo_id": 52728744896, "title": "Diego Rivera's America, SFMOMA; 2023 Jan 2", "latitude": 37.786036, "longitude": -122.40107, "time_taken": "2023-01-02 12:52:13", "hour_taken": 12, "photo_url": "https://farmNone.staticflickr.com/None/52728744896_c9aca74b04.jpg", "author_id": "13875847@N00", "author_name": "karlsbad"}, {"photo_id": 52728743856, "title": "Diego Rivera's America, SFMOMA; 2023 Jan 2", "latitude": 37.786022, "longitude": -122.401087, "time_taken": "2023-01-02 12:52:40", "hour_taken": 12, "photo_url": "https://farmNone.staticflickr.com/None/52728743856_9936113318.jpg", "author_id": "13875847@N00", "author_name": "karlsbad"}, {"photo_id": 52729221393, "title": "Diego Rivera's America, SFMOMA; 2023 Jan 2", "latitude": 37.78598, "longitude": -122.401017, "time_taken": "2023-01-02 12:57:23", "hour_taken": 12, "photo_url": "https://farmNone.staticflickr.com/None/52729221393_aace6d7440.jpg", "author_id": "13875847@N00", "author_name": "karlsbad"}, {"photo_id": 52697952260, "title": "Backlighted red hair 20230101-154827", "latitude": 37.770027, "longitude": -122.468194, "time_taken": "2023-01-01 15:48:27", "hour_taken": 15, "photo_url": "https://farmNone.staticflickr.com/None/52697952260_1c724b130e.jpg", "author_id": "31603030@N08", "author_name": "Charlie Wambeke Photography"}, {"photo_id": 52666631728, "title": "From Golden Gate Park to Mount Tam", "latitude": 37.741066, "longitude": -122.472156, "time_taken": "2023-01-01 15:46:40", "hour_taken": 15, "photo_url": "https://farmNone.staticflickr.com/None/52666631728_cf61929c5c.jpg", "author_id": "27143604@N08", "author_name": "Richard D. Price"}, {"photo_id": 52666631613, "title": "Clear to Downtown and Oakland", "latitude": 37.741066, "longitude": -122.472156, "time_taken": "2023-01-01 15:54:26", "hour_taken": 15, "photo_url": "https://farmNone.staticflickr.com/None/52666631613_a771d4f639.jpg", "author_id": "27143604@N08", "author_name": "Richard D. Price"}, {"photo_id": 52665633027, "title": "red tail hawk", "latitude": 37.741066, "longitude": -122.472156, "time_taken": "2023-01-01 15:59:24", "hour_taken": 15, "photo_url": "https://farmNone.staticflickr.com/None/52665633027_7732c62610.jpg", "author_id": "27143604@N08", "author_name": "Richard D. Price"}, {"photo_id": 52666631523, "title": "red tail hawk", "latitude": 37.741066, "longitude": -122.472156, "time_taken": "2023-01-01 15:59:31", "hour_taken": 15, "photo_url": "https://farmNone.staticflickr.com/None/52666631523_9422be7937.jpg", "author_id": "27143604@N08", "author_name": "Richard D. Price"}, {"photo_id": 52665632982, "title": "Late afternoon rooftop view of Sutro Tower and Twin Peaks", "latitude": 37.741066, "longitude": -122.472156, "time_taken": "2023-01-01 16:16:26", "hour_taken": 16, "photo_url": "https://farmNone.staticflickr.com/None/52665632982_0e428d21dc.jpg", "author_id": "27143604@N08", "author_name": "Richard D. Price"}, {"photo_id": 52666422419, "title": "Out of the Blue", "latitude": 37.741066, "longitude": -122.472156, "time_taken": "2023-01-01 16:16:49", "hour_taken": 16, "photo_url": "https://farmNone.staticflickr.com/None/52666422419_ee5358e339.jpg", "author_id": "27143604@N08", "author_name": "Richard D. Price"}, {"photo_id": 52666565010, "title": "Susan Surveys the Scene", "latitude": 37.741066, "longitude": -122.472156, "time_taken": "2023-01-01 16:17:55", "hour_taken": 16, "photo_url": "https://farmNone.staticflickr.com/None/52666565010_26373af7f6.jpg", "author_id": "27143604@N08", "author_name": "Richard D. Price"}, {"photo_id": 52666564985, "title": "Such Kulcha!", "latitude": 37.741066, "longitude": -122.472156, "time_taken": "2023-01-01 16:35:28", "hour_taken": 16, "photo_url": "https://farmNone.staticflickr.com/None/52666564985_815cdaf751.jpg", "author_id": "27143604@N08", "author_name": "Richard D. Price"}, {"photo_id": 52665632947, "title": "High Voltage (on the next block down)", "latitude": 37.741066, "longitude": -122.472156, "time_taken": "2023-01-01 16:23:36", "hour_taken": 16, "photo_url": "https://farmNone.staticflickr.com/None/52665632947_7b784345a0.jpg", "author_id": "27143604@N08", "author_name": "Richard D. Price"}, {"photo_id": 52666422379, "title": "Western Light", "latitude": 37.741066, "longitude": -122.472156, "time_taken": "2023-01-01 16:42:53", "hour_taken": 16, "photo_url": "https://farmNone.staticflickr.com/None/52666422379_16a94fdd5b.jpg", "author_id": "27143604@N08", "author_name": "Richard D. Price"}, {"photo_id": 52666631373, "title": "Classicist in a Fiddling Town", "latitude": 37.741066, "longitude": -122.472156, "time_taken": "2023-01-01 16:35:54", "hour_taken": 16, "photo_url": "https://farmNone.staticflickr.com/None/52666631373_db985d39d4.jpg", "author_id": "27143604@N08", "author_name": "Richard D. Price"}, {"photo_id": 52666564900, "title": "Homage to Doctor T. J. Eckleburg?", "latitude": 37.746265, "longitude": -122.470612, "time_taken": "2023-01-01 16:59:34", "hour_taken": 16, "photo_url": "https://farmNone.staticflickr.com/None/52666564900_3ed0efa93f.jpg", "author_id": "27143604@N08", "author_name": "Richard D. Price"}, {"photo_id": 52666422319, "title": "red tail hawk", "latitude": 37.741066, "longitude": -122.472156, "time_taken": "2023-01-01 16:00:52", "hour_taken": 16, "photo_url": "https://farmNone.staticflickr.com/None/52666422319_ae27c3b7ee.jpg", "author_id": "27143604@N08", "author_name": "Richard D. Price"}, {"photo_id": 52665632727, "title": "An Eyeful", "latitude": 37.746265, "longitude": -122.470612, "time_taken": "2023-01-01 16:59:53", "hour_taken": 16, "photo_url": "https://farmNone.staticflickr.com/None/52665632727_d7008479dd.jpg", "author_id": "27143604@N08", "author_name": "Richard D. Price"}, {"photo_id": 52665271837, "title": "Clarion Alley", "latitude": 37.762994, "longitude": -122.421045, "time_taken": "2023-01-01 16:34:40", "hour_taken": 16, "photo_url": "https://farmNone.staticflickr.com/None/52665271837_3979cc47fb.jpg", "author_id": "44124466908@N01", "author_name": "Steve Rhodes"}, {"photo_id": 52666270983, "title": "Clarion Alley", "latitude": 37.762958, "longitude": -122.421326, "time_taken": "2023-01-01 16:13:00", "hour_taken": 16, "photo_url": "https://farmNone.staticflickr.com/None/52666270983_8ec9360467.jpg", "author_id": "44124466908@N01", "author_name": "Steve Rhodes"}, {"photo_id": 52666270938, "title": "Clarion Alley", "latitude": 37.762986, "longitude": -122.421356, "time_taken": "2023-01-01 16:33:23", "hour_taken": 16, "photo_url": "https://farmNone.staticflickr.com/None/52666270938_e614a4e150.jpg", "author_id": "44124466908@N01", "author_name": "Steve Rhodes"}, {"photo_id": 52666270948, "title": "Clarion Alley", "latitude": 37.763008, "longitude": -122.420603, "time_taken": "2023-01-01 16:35:39", "hour_taken": 16, "photo_url": "https://farmNone.staticflickr.com/None/52666270948_b872783621.jpg", "author_id": "44124466908@N01", "author_name": "Steve Rhodes"}, {"photo_id": 52666206840, "title": "Clarion Alley", "latitude": 37.762958, "longitude": -122.421523, "time_taken": "2023-01-01 16:32:12", "hour_taken": 16, "photo_url": "https://farmNone.staticflickr.com/None/52666206840_98094190ff.jpg", "author_id": "44124466908@N01", "author_name": "Steve Rhodes"}, {"photo_id": 52665772266, "title": "Clarion Alley", "latitude": 37.762986, "longitude": -122.421364, "time_taken": "2023-01-01 16:33:00", "hour_taken": 16, "photo_url": "https://farmNone.staticflickr.com/None/52665772266_35a6d48c3b.jpg", "author_id": "44124466908@N01", "author_name": "Steve Rhodes"}, {"photo_id": 52666206830, "title": "Clarion Alley", "latitude": 37.76298, "longitude": -122.420814, "time_taken": "2023-01-01 16:35:10", "hour_taken": 16, "photo_url": "https://farmNone.staticflickr.com/None/52666206830_4eff4032aa.jpg", "author_id": "44124466908@N01", "author_name": "Steve Rhodes"}, {"photo_id": 52666206810, "title": "Clarion Alley", "latitude": 37.763011, "longitude": -122.420609, "time_taken": "2023-01-01 16:35:49", "hour_taken": 16, "photo_url": "https://farmNone.staticflickr.com/None/52666206810_53c1c72b41.jpg", "author_id": "44124466908@N01", "author_name": "Steve Rhodes"}, {"photo_id": 52666206725, "title": "Clarion Alley", "latitude": 37.763036, "longitude": -122.420587, "time_taken": "2023-01-01 16:36:00", "hour_taken": 16, "photo_url": "https://farmNone.staticflickr.com/None/52666206725_253c23941f.jpg", "author_id": "44124466908@N01", "author_name": "Steve Rhodes"}, {"photo_id": 52666063719, "title": "Clarion Alley", "latitude": 37.762988, "longitude": -122.421037, "time_taken": "2023-01-01 16:34:25", "hour_taken": 16, "photo_url": "https://farmNone.staticflickr.com/None/52666063719_df14058008.jpg", "author_id": "44124466908@N01", "author_name": "Steve Rhodes"}, {"photo_id": 52665271717, "title": "Clarion Alley", "latitude": 37.762994, "longitude": -122.42102, "time_taken": "2023-01-01 16:36:54", "hour_taken": 16, "photo_url": "https://farmNone.staticflickr.com/None/52665271717_9e9d9d8a71.jpg", "author_id": "44124466908@N01", "author_name": "Steve Rhodes"}, {"photo_id": 52665772191, "title": "Clarion Alley", "latitude": 37.762986, "longitude": -122.420953, "time_taken": "2023-01-01 16:34:50", "hour_taken": 16, "photo_url": "https://farmNone.staticflickr.com/None/52665772191_3c66082e1c.jpg", "author_id": "44124466908@N01", "author_name": "Steve Rhodes"}, {"photo_id": 52665271697, "title": "Clarion Alley", "latitude": 37.762997, "longitude": -122.421045, "time_taken": "2023-01-01 16:34:35", "hour_taken": 16, "photo_url": "https://farmNone.staticflickr.com/None/52665271697_0ae8787eb5.jpg", "author_id": "44124466908@N01", "author_name": "Steve Rhodes"}, {"photo_id": 52666206710, "title": "Clarion Alley", "latitude": 37.762813, "longitude": -122.421281, "time_taken": "2023-01-01 16:12:53", "hour_taken": 16, "photo_url": "https://farmNone.staticflickr.com/None/52666206710_8799a0a392.jpg", "author_id": "44124466908@N01", "author_name": "Steve Rhodes"}, {"photo_id": 52665271712, "title": "Clarion Alley", "latitude": 37.762927, "longitude": -122.420923, "time_taken": "2023-01-01 16:13:54", "hour_taken": 16, "photo_url": "https://farmNone.staticflickr.com/None/52665271712_be49da7276.jpg", "author_id": "44124466908@N01", "author_name": "Steve Rhodes"}, {"photo_id": 52666206660, "title": "Clarion Alley", "latitude": 37.762966, "longitude": -122.421478, "time_taken": "2023-01-01 16:32:23", "hour_taken": 16, "photo_url": "https://farmNone.staticflickr.com/None/52666206660_449e4bfd8c.jpg", "author_id": "44124466908@N01", "author_name": "Steve Rhodes"}, {"photo_id": 52666270843, "title": "Clarion Alley", "latitude": 37.762997, "longitude": -122.42077, "time_taken": "2023-01-01 16:35:18", "hour_taken": 16, "photo_url": "https://farmNone.staticflickr.com/None/52666270843_998b922e92.jpg", "author_id": "44124466908@N01", "author_name": "Steve Rhodes"}, {"photo_id": 52665772131, "title": "Clarion Alley", "latitude": 37.762994, "longitude": -122.421373, "time_taken": "2023-01-01 16:33:06", "hour_taken": 16, "photo_url": "https://farmNone.staticflickr.com/None/52665772131_cbb3178208.jpg", "author_id": "44124466908@N01", "author_name": "Steve Rhodes"}, {"photo_id": 52666206565, "title": "Clarion Alley", "latitude": 37.762986, "longitude": -122.421356, "time_taken": "2023-01-01 16:33:26", "hour_taken": 16, "photo_url": "https://farmNone.staticflickr.com/None/52666206565_358b860a30.jpg", "author_id": "44124466908@N01", "author_name": "Steve Rhodes"}, {"photo_id": 52666063569, "title": "Clarion Alley", "latitude": 37.763005, "longitude": -122.420603, "time_taken": "2023-01-01 16:35:44", "hour_taken": 16, "photo_url": "https://farmNone.staticflickr.com/None/52666063569_95fcd3d5e9.jpg", "author_id": "44124466908@N01", "author_name": "Steve Rhodes"}, {"photo_id": 52666063574, "title": "Clarion Alley", "latitude": 37.762977, "longitude": -122.42132, "time_taken": "2023-01-01 16:33:52", "hour_taken": 16, "photo_url": "https://farmNone.staticflickr.com/None/52666063574_3fd219e274.jpg", "author_id": "44124466908@N01", "author_name": "Steve Rhodes"}, {"photo_id": 52666206555, "title": "Clarion Alley", "latitude": 37.763022, "longitude": -122.420603, "time_taken": "2023-01-01 16:35:51", "hour_taken": 16, "photo_url": "https://farmNone.staticflickr.com/None/52666206555_2c788805d0.jpg", "author_id": "44124466908@N01", "author_name": "Steve Rhodes"}, {"photo_id": 52665772026, "title": "Clarion Alley", "latitude": 37.763019, "longitude": -122.420701, "time_taken": "2023-01-01 16:36:26", "hour_taken": 16, "photo_url": "https://farmNone.staticflickr.com/None/52665772026_4f2b8f40de.jpg", "author_id": "44124466908@N01", "author_name": "Steve Rhodes"}, {"photo_id": 52666206530, "title": "Clarion Alley", "latitude": 37.762988, "longitude": -122.421045, "time_taken": "2023-01-01 16:34:28", "hour_taken": 16, "photo_url": "https://farmNone.staticflickr.com/None/52666206530_450df829b2.jpg", "author_id": "44124466908@N01", "author_name": "Steve Rhodes"}, {"photo_id": 52666063454, "title": "Clarion Alley", "latitude": 37.76293, "longitude": -122.421334, "time_taken": "2023-01-01 16:12:56", "hour_taken": 16, "photo_url": "https://farmNone.staticflickr.com/None/52666063454_cdfaaa8171.jpg", "author_id": "44124466908@N01", "author_name": "Steve Rhodes"}, {"photo_id": 52666063429, "title": "Clarion Alley", "latitude": 37.762944, "longitude": -122.421556, "time_taken": "2023-01-01 16:32:01", "hour_taken": 16, "photo_url": "https://farmNone.staticflickr.com/None/52666063429_e157442781.jpg", "author_id": "44124466908@N01", "author_name": "Steve Rhodes"}, {"photo_id": 52665771961, "title": "Clarion Alley", "latitude": 37.762997, "longitude": -122.421037, "time_taken": "2023-01-01 16:34:38", "hour_taken": 16, "photo_url": "https://farmNone.staticflickr.com/None/52665771961_1c27ccf2a3.jpg", "author_id": "44124466908@N01", "author_name": "Steve Rhodes"}, {"photo_id": 52666270673, "title": "Clarion Alley", "latitude": 37.762961, "longitude": -122.42102, "time_taken": "2023-01-01 16:36:56", "hour_taken": 16, "photo_url": "https://farmNone.staticflickr.com/None/52666270673_1b76cb7576.jpg", "author_id": "44124466908@N01", "author_name": "Steve Rhodes"}, {"photo_id": 52665271447, "title": "Clarion Alley", "latitude": 37.763005, "longitude": -122.420623, "time_taken": "2023-01-01 16:35:32", "hour_taken": 16, "photo_url": "https://farmNone.staticflickr.com/None/52665271447_56c925c3e8.jpg", "author_id": "44124466908@N01", "author_name": "Steve Rhodes"}, {"photo_id": 52665771951, "title": "Clarion Alley", "latitude": 37.762977, "longitude": -122.421364, "time_taken": "2023-01-01 16:32:42", "hour_taken": 16, "photo_url": "https://farmNone.staticflickr.com/None/52665771951_584c9f41e1.jpg", "author_id": "44124466908@N01", "author_name": "Steve Rhodes"}, {"photo_id": 52666063414, "title": "Clarion Alley", "latitude": 37.762988, "longitude": -122.421356, "time_taken": "2023-01-01 16:33:20", "hour_taken": 16, "photo_url": "https://farmNone.staticflickr.com/None/52666063414_a77d97fb8c.jpg", "author_id": "44124466908@N01", "author_name": "Steve Rhodes"}, {"photo_id": 52666063359, "title": "Clarion Alley", "latitude": 37.763008, "longitude": -122.420603, "time_taken": "2023-01-01 16:35:47", "hour_taken": 16, "photo_url": "https://farmNone.staticflickr.com/None/52666063359_dce103598f.jpg", "author_id": "44124466908@N01", "author_name": "Steve Rhodes"}, {"photo_id": 52665271407, "title": "Clarion Alley", "latitude": 37.76298, "longitude": -122.421334, "time_taken": "2023-01-01 16:33:35", "hour_taken": 16, "photo_url": "https://farmNone.staticflickr.com/None/52665271407_0c4e02de60.jpg", "author_id": "44124466908@N01", "author_name": "Steve Rhodes"}, {"photo_id": 52666206425, "title": "Clarion Alley", "latitude": 37.762994, "longitude": -122.421037, "time_taken": "2023-01-01 16:34:32", "hour_taken": 16, "photo_url": "https://farmNone.staticflickr.com/None/52666206425_c9ed3a5e94.jpg", "author_id": "44124466908@N01", "author_name": "Steve Rhodes"}, {"photo_id": 52635552892, "title": "Emergency Cutz (emergencycutzofficial on Instagram)", "latitude": 37.807522, "longitude": -122.421882, "time_taken": "2023-01-01 16:12:49", "hour_taken": 16, "photo_url": "https://farmNone.staticflickr.com/None/52635552892_ddcfdfcc18.jpg", "author_id": "80234356@N04", "author_name": "alexanderferdinand"}, {"photo_id": 52620883609, "title": "San Francisco, Pier 39", "latitude": 37.810343, "longitude": -122.411019, "time_taken": "2023-01-01 15:16:45", "hour_taken": 15, "photo_url": "https://farmNone.staticflickr.com/None/52620883609_201cd5b503.jpg", "author_id": "80234356@N04", "author_name": "alexanderferdinand"}, {"photo_id": 52618621823, "title": "Probing", "latitude": 37.914248, "longitude": -122.302787, "time_taken": "2023-01-01 14:27:11", "hour_taken": 14, "photo_url": "https://farmNone.staticflickr.com/None/52618621823_1b911fdfe3.jpg", "author_id": "55154692@N05", "author_name": "TJ Gehling"}, {"photo_id": 52617483877, "title": "Golden Reflections in the Blue Hour", "latitude": 37.796576, "longitude": -122.482473, "time_taken": "2023-01-01 20:20:23", "hour_taken": 20, "photo_url": "https://farmNone.staticflickr.com/None/52617483877_cae6eedc9c.jpg", "author_id": "50115004@N00", "author_name": "Rob Shenk"}, {"photo_id": 52618368918, "title": "Sailing the Golden Gate", "latitude": 37.796576, "longitude": -122.482473, "time_taken": "2023-01-01 19:11:35", "hour_taken": 19, "photo_url": "https://farmNone.staticflickr.com/None/52618368918_da97f0454f.jpg", "author_id": "50115004@N00", "author_name": "Rob Shenk"}, {"photo_id": 52616369014, "title": "", "latitude": 37.786747, "longitude": -122.494837, "time_taken": "2023-01-01 16:37:27", "hour_taken": 16, "photo_url": "https://farmNone.staticflickr.com/None/52616369014_a5fd51eb13.jpg", "author_id": "83958074@N05", "author_name": "TajinderS"}, {"photo_id": 52615594262, "title": "", "latitude": 37.78675, "longitude": -122.49485, "time_taken": "2023-01-01 16:37:27", "hour_taken": 16, "photo_url": "https://farmNone.staticflickr.com/None/52615594262_ed0365b541.jpg", "author_id": "83958074@N05", "author_name": "TajinderS"}, {"photo_id": 52616537915, "title": "", "latitude": 37.786755, "longitude": -122.494873, "time_taken": "2023-01-01 16:33:28", "hour_taken": 16, "photo_url": "https://farmNone.staticflickr.com/None/52616537915_3cfaa9ff31.jpg", "author_id": "83958074@N05", "author_name": "TajinderS"}, {"photo_id": 52615322484, "title": "San Francisco in monochrome", "latitude": 37.787505, "longitude": -122.400642, "time_taken": "2023-01-01 16:24:35", "hour_taken": 16, "photo_url": "https://farmNone.staticflickr.com/None/52615322484_c07d6fdcc2.jpg", "author_id": "28287831@N00", "author_name": "kimbar/Thanks for 5.5 million views!"}, {"photo_id": 52613629445, "title": "Evening at the Golden Gate", "latitude": 37.796576, "longitude": -122.482473, "time_taken": "2023-01-01 20:32:56", "hour_taken": 20, "photo_url": "https://farmNone.staticflickr.com/None/52613629445_70b66a59ae.jpg", "author_id": "50115004@N00", "author_name": "Rob Shenk"}, {"photo_id": 52611392027, "title": "Kalpataru Day Celebrations 2023: Northern California", "latitude": 37.795163, "longitude": -122.435142, "time_taken": "2023-01-01 11:22:55", "hour_taken": 11, "photo_url": "https://farmNone.staticflickr.com/None/52611392027_a02774ea51.jpg", "author_id": "112254964@N05", "author_name": "Belur Math, Howrah"}, {"photo_id": 52611894481, "title": "Kalpataru Day Celebrations 2023: Northern California", "latitude": 37.795163, "longitude": -122.435142, "time_taken": "2023-01-01 10:33:33", "hour_taken": 10, "photo_url": "https://farmNone.staticflickr.com/None/52611894481_c1c963ba8c.jpg", "author_id": "112254964@N05", "author_name": "Belur Math, Howrah"}, {"photo_id": 52612157204, "title": "Kalpataru Day Celebrations 2023: Northern California", "latitude": 37.795163, "longitude": -122.435142, "time_taken": "2023-01-01 13:30:51", "hour_taken": 13, "photo_url": "https://farmNone.staticflickr.com/None/52612157204_c7dfe51b57.jpg", "author_id": "112254964@N05", "author_name": "Belur Math, Howrah"}, {"photo_id": 52612157174, "title": "Kalpataru Day Celebrations 2023: Northern California", "latitude": 37.795163, "longitude": -122.435142, "time_taken": "2023-01-01 13:18:08", "hour_taken": 13, "photo_url": "https://farmNone.staticflickr.com/None/52612157174_72257269db.jpg", "author_id": "112254964@N05", "author_name": "Belur Math, Howrah"}, {"photo_id": 52611894421, "title": "Kalpataru Day Celebrations 2023: Northern California", "latitude": 37.795163, "longitude": -122.435142, "time_taken": "2023-01-01 11:56:10", "hour_taken": 11, "photo_url": "https://farmNone.staticflickr.com/None/52611894421_de877ca523.jpg", "author_id": "112254964@N05", "author_name": "Belur Math, Howrah"}, {"photo_id": 52612157124, "title": "Kalpataru Day Celebrations 2023: Northern California", "latitude": 37.795163, "longitude": -122.435142, "time_taken": "2023-01-01 10:41:17", "hour_taken": 10, "photo_url": "https://farmNone.staticflickr.com/None/52612157124_5a1221aa6e.jpg", "author_id": "112254964@N05", "author_name": "Belur Math, Howrah"}, {"photo_id": 52612157094, "title": "Kalpataru Day Celebrations 2023: Northern California", "latitude": 37.795163, "longitude": -122.435142, "time_taken": "2023-01-01 13:37:23", "hour_taken": 13, "photo_url": "https://farmNone.staticflickr.com/None/52612157094_256ce2db8b.jpg", "author_id": "112254964@N05", "author_name": "Belur Math, Howrah"}, {"photo_id": 52611391842, "title": "Kalpataru Day Celebrations 2023: Northern California", "latitude": 37.795163, "longitude": -122.435142, "time_taken": "2023-01-01 11:37:17", "hour_taken": 11, "photo_url": "https://farmNone.staticflickr.com/None/52611391842_d8194c6dde.jpg", "author_id": "112254964@N05", "author_name": "Belur Math, Howrah"}, {"photo_id": 52607322790, "title": "Stairway to heaven?", "latitude": 37.785763, "longitude": -122.400939, "time_taken": "2023-01-01 15:49:06", "hour_taken": 15, "photo_url": "https://farmNone.staticflickr.com/None/52607322790_a808e6065b.jpg", "author_id": "28287831@N00", "author_name": "kimbar/Thanks for 5.5 million views!"}, {"photo_id": 52605523562, "title": "Crossing Great Highway", "latitude": 37.737994, "longitude": -122.506503, "time_taken": "2023-01-01 15:06:37", "hour_taken": 15, "photo_url": "https://farmNone.staticflickr.com/None/52605523562_8d5f11237e.jpg", "author_id": "17607628@N00", "author_name": "O Caritas"}, {"photo_id": 52605523052, "title": "Beach Park Motel", "latitude": 37.736277, "longitude": -122.50415, "time_taken": "2023-01-01 15:15:13", "hour_taken": 15, "photo_url": "https://farmNone.staticflickr.com/None/52605523052_506ac89a95.jpg", "author_id": "17607628@N00", "author_name": "O Caritas"}, {"photo_id": 52605522437, "title": "Sand Castles", "latitude": 37.758519, "longitude": -122.511564, "time_taken": "2023-01-01 14:19:13", "hour_taken": 14, "photo_url": "https://farmNone.staticflickr.com/None/52605522437_c6e96178e6.jpg", "author_id": "17607628@N00", "author_name": "O Caritas"}, {"photo_id": 52606444025, "title": "Wawona Street at Great Highway", "latitude": 37.738008, "longitude": -122.506234, "time_taken": "2023-01-01 15:10:45", "hour_taken": 15, "photo_url": "https://farmNone.staticflickr.com/None/52606444025_2101950e8b.jpg", "author_id": "17607628@N00", "author_name": "O Caritas"}, {"photo_id": 52605471102, "title": "winter california light", "latitude": 37.855344, "longitude": -122.27705, "time_taken": "2023-01-01 16:48:29", "hour_taken": 16, "photo_url": "https://farmNone.staticflickr.com/None/52605471102_1cafa7a7ed.jpg", "author_id": "25789258@N00", "author_name": "eeblet"}, {"photo_id": 52606420928, "title": "", "latitude": 37.741772, "longitude": -122.468406, "time_taken": "2023-01-01 22:07:25", "hour_taken": 22, "photo_url": "https://farmNone.staticflickr.com/None/52606420928_08c551f223.jpg", "author_id": "57453294@N00", "author_name": "sftrajan"}, {"photo_id": 52605360037, "title": "2023 Bike 180: Day 001 Happy New Year, Everyone!", "latitude": 37.814825, "longitude": -122.37072, "time_taken": "2023-01-01 14:22:25", "hour_taken": 14, "photo_url": "https://farmNone.staticflickr.com/None/52605360037_a99c9e195c.jpg", "author_id": "50852290@N00", "author_name": "spamajama"}, {"photo_id": 52605083091, "title": "Pacific Telephone building", "latitude": 37.786388, "longitude": -122.400306, "time_taken": "2023-01-01 14:32:07", "hour_taken": 14, "photo_url": "https://farmNone.staticflickr.com/None/52605083091_7f3ac84ea8.jpg", "author_id": "28287831@N00", "author_name": "kimbar/Thanks for 5.5 million views!"}, {"photo_id": 52605583503, "title": "Along Market Street", "latitude": 37.788861, "longitude": -122.401734, "time_taken": "2023-01-01 16:38:09", "hour_taken": 16, "photo_url": "https://farmNone.staticflickr.com/None/52605583503_409f305415.jpg", "author_id": "28287831@N00", "author_name": "kimbar/Thanks for 5.5 million views!"}, {"photo_id": 52605310959, "title": "Venus above SF skyline and Bay Bridge", "latitude": 37.837072, "longitude": -122.313537, "time_taken": "2023-01-01 17:46:27", "hour_taken": 17, "photo_url": "https://farmNone.staticflickr.com/None/52605310959_5e8b4cc5f9.jpg", "author_id": "42914481@N00", "author_name": "albategnius"}, {"photo_id": 52604330288, "title": "", "latitude": 37.766188, "longitude": -122.425895, "time_taken": "2023-01-02 07:15:50", "hour_taken": 7, "photo_url": "https://farmNone.staticflickr.com/None/52604330288_942744df20.jpg", "author_id": "88077630@N00", "author_name": "Walker Dukes"}, {"photo_id": 52604054244, "title": "SF January 2 Sunrise Panorama", "latitude": 37.766266, "longitude": -122.425767, "time_taken": "2023-01-02 07:16:21", "hour_taken": 7, "photo_url": "https://farmNone.staticflickr.com/None/52604054244_4673e9b599.jpg", "author_id": "88077630@N00", "author_name": "Walker Dukes"}, {"photo_id": 52603776771, "title": "January 2 Panorama over Mission Dolores", "latitude": 37.76628, "longitude": -122.425751, "time_taken": "2023-01-02 07:17:29", "hour_taken": 7, "photo_url": "https://farmNone.staticflickr.com/None/52603776771_f0725f2da6.jpg", "author_id": "88077630@N00", "author_name": "Walker Dukes"}, {"photo_id": 52603677693, "title": "Looking up at SFMOMA", "latitude": 37.785758, "longitude": -122.400948, "time_taken": "2023-01-01 15:48:59", "hour_taken": 15, "photo_url": "https://farmNone.staticflickr.com/None/52603677693_c69134f3f6.jpg", "author_id": "28287831@N00", "author_name": "kimbar/Thanks for 5.5 million views!"}, {"photo_id": 52603288029, "title": "Furling drum separated from furler", "latitude": 37.870744, "longitude": -122.497959, "time_taken": "2023-01-01 11:02:43", "hour_taken": 11, "photo_url": "https://farmNone.staticflickr.com/None/52603288029_4790502eee.jpg", "author_id": "136938983@N07", "author_name": "MUSTAD MARINE"}, {"photo_id": 52602830776, "title": "lil' taxi l and ll", "latitude": 37.808561, "longitude": -122.408949, "time_taken": "2023-01-01 18:03:52", "hour_taken": 18, "photo_url": "https://farmNone.staticflickr.com/None/52602830776_ebc9c3e25a.jpg", "author_id": "30607051@N00", "author_name": "pbo31"}, {"photo_id": 52602830196, "title": "140 new montgomery lll", "latitude": 37.786264, "longitude": -122.40013, "time_taken": "2023-01-02 00:09:41", "hour_taken": 0, "photo_url": "https://farmNone.staticflickr.com/None/52602830196_3f2f398471.jpg", "author_id": "30607051@N00", "author_name": "pbo31"}, {"photo_id": 52603077620, "title": "We Become Birds [ 1 | 365 ]", "latitude": 37.752288, "longitude": -122.510534, "time_taken": "2023-01-01 14:33:13", "hour_taken": 14, "photo_url": "https://farmNone.staticflickr.com/None/52603077620_17f28371cd.jpg", "author_id": "17607628@N00", "author_name": "O Caritas"}, {"photo_id": 52602909110, "title": "Mission Bay, San Francisco - Morning Skyline", "latitude": 37.774268, "longitude": -122.394776, "time_taken": "2023-01-02 07:13:29", "hour_taken": 7, "photo_url": "https://farmNone.staticflickr.com/None/52602909110_5110e0c955.jpg", "author_id": "78397536@N03", "author_name": "Jude CA"}, {"photo_id": 52601862720, "title": "Coit Tower Telegraph Hill - 010123 - 01", "latitude": 37.803579, "longitude": -122.408105, "time_taken": "2023-01-01 11:58:16", "hour_taken": 11, "photo_url": "https://farmNone.staticflickr.com/None/52601862720_0c013714c7.jpg", "author_id": "19159227@N06", "author_name": "Stan-the-Rocker"}, {"photo_id": 52601434201, "title": "Coit Tower Telegraph Hill - 010123 - 02", "latitude": 37.803579, "longitude": -122.408105, "time_taken": "2023-01-01 11:58:27", "hour_taken": 11, "photo_url": "https://farmNone.staticflickr.com/None/52601434201_7512a28c62.jpg", "author_id": "19159227@N06", "author_name": "Stan-the-Rocker"}, {"photo_id": 52600936987, "title": "This is new.", "latitude": 37.784668, "longitude": -122.407672, "time_taken": "2023-01-01 19:03:52", "hour_taken": 19, "photo_url": "https://farmNone.staticflickr.com/None/52600936987_3d2852a59d.jpg", "author_id": "7711113@N08", "author_name": "BuddyL"}, {"photo_id": 52601856525, "title": "North Beach - 010123 - 01 - View of Coit Tower", "latitude": 37.801239, "longitude": -122.409617, "time_taken": "2023-01-01 16:46:32", "hour_taken": 16, "photo_url": "https://farmNone.staticflickr.com/None/52601856525_dea8e4eac4.jpg", "author_id": "19159227@N06", "author_name": "Stan-the-Rocker"}, {"photo_id": 52601691929, "title": "North Beach - 010123 - 03 - Washington Square Park", "latitude": 37.800832, "longitude": -122.410719, "time_taken": "2023-01-01 16:51:50", "hour_taken": 16, "photo_url": "https://farmNone.staticflickr.com/None/52601691929_641a620877.jpg", "author_id": "19159227@N06", "author_name": "Stan-the-Rocker"}, {"photo_id": 52600936587, "title": "North Beach - 010123 - 04 - Washington Square Park", "latitude": 37.800832, "longitude": -122.410719, "time_taken": "2023-01-01 16:52:46", "hour_taken": 16, "photo_url": "https://farmNone.staticflickr.com/None/52600936587_de789a39c8.jpg", "author_id": "19159227@N06", "author_name": "Stan-the-Rocker"}, {"photo_id": 52601428106, "title": "North Beach - 010123 - 05", "latitude": 37.79956, "longitude": -122.410315, "time_taken": "2023-01-01 17:24:48", "hour_taken": 17, "photo_url": "https://farmNone.staticflickr.com/None/52601428106_3e313ce112.jpg", "author_id": "19159227@N06", "author_name": "Stan-the-Rocker"}, {"photo_id": 52601856375, "title": "North Beach - 010123 - 07", "latitude": 37.799611, "longitude": -122.408587, "time_taken": "2023-01-01 17:26:23", "hour_taken": 17, "photo_url": "https://farmNone.staticflickr.com/None/52601856375_2b01d14d8a.jpg", "author_id": "19159227@N06", "author_name": "Stan-the-Rocker"}, {"photo_id": 52601856340, "title": "North Beach - 010123 - 08", "latitude": 37.799611, "longitude": -122.408587, "time_taken": "2023-01-01 17:30:12", "hour_taken": 17, "photo_url": "https://farmNone.staticflickr.com/None/52601856340_9bff4b56a5.jpg", "author_id": "19159227@N06", "author_name": "Stan-the-Rocker"}, {"photo_id": 52601847280, "title": "BARC NYD 2023 USS Hornet", "latitude": 37.772416, "longitude": -122.302281, "time_taken": "2023-01-01 11:57:24", "hour_taken": 11, "photo_url": "https://farmNone.staticflickr.com/None/52601847280_96fb7ec299.jpg", "author_id": "89376967@N07", "author_name": "russell2414"}, {"photo_id": 52601845600, "title": "Russian Hill - 010123 - 01 - Coolbrith Park View of Coit Tower", "latitude": 37.798314, "longitude": -122.413598, "time_taken": "2023-01-01 17:03:55", "hour_taken": 17, "photo_url": "https://farmNone.staticflickr.com/None/52601845600_34d43b0001.jpg", "author_id": "19159227@N06", "author_name": "Stan-the-Rocker"}, {"photo_id": 52601845585, "title": "Russian Hill - 010123 - 02 - Coolbrith Park - View Towards Financial District", "latitude": 37.798314, "longitude": -122.413598, "time_taken": "2023-01-01 17:04:36", "hour_taken": 17, "photo_url": "https://farmNone.staticflickr.com/None/52601845585_4d854d80f0.jpg", "author_id": "19159227@N06", "author_name": "Stan-the-Rocker"}, {"photo_id": 52601681059, "title": "Russian Hill - 010123 - 03 - Coolbrith Park - View Towards Financial District", "latitude": 37.798314, "longitude": -122.413598, "time_taken": "2023-01-01 17:05:20", "hour_taken": 17, "photo_url": "https://farmNone.staticflickr.com/None/52601681059_9caf79d637.jpg", "author_id": "19159227@N06", "author_name": "Stan-the-Rocker"}, {"photo_id": 52601933513, "title": "Russian Hill - 010123 - 05 - Coolbrith Park View Towards SFOBB", "latitude": 37.798314, "longitude": -122.413598, "time_taken": "2023-01-01 17:05:40", "hour_taken": 17, "photo_url": "https://farmNone.staticflickr.com/None/52601933513_305da4e8c8.jpg", "author_id": "19159227@N06", "author_name": "Stan-the-Rocker"}, {"photo_id": 52601845485, "title": "Russian Hill - 010123 - 06 - Coolbrith Park View Towards SFOBB Eastern Span", "latitude": 37.798314, "longitude": -122.413598, "time_taken": "2023-01-01 17:06:35", "hour_taken": 17, "photo_url": "https://farmNone.staticflickr.com/None/52601845485_69c6d6fee0.jpg", "author_id": "19159227@N06", "author_name": "Stan-the-Rocker"}, {"photo_id": 52601417271, "title": "Russian Hill - 010123 - 07 - Coolbrith Park View of Royal Towers", "latitude": 37.798314, "longitude": -122.413598, "time_taken": "2023-01-01 17:11:00", "hour_taken": 17, "photo_url": "https://farmNone.staticflickr.com/None/52601417271_3cd7a37abd.jpg", "author_id": "19159227@N06", "author_name": "Stan-the-Rocker"}, {"photo_id": 52601933408, "title": "Russian Hill - 010123 - 08 - Coolbrith Park - View Towards Financial District", "latitude": 37.798, "longitude": -122.413759, "time_taken": "2023-01-01 17:11:49", "hour_taken": 17, "photo_url": "https://farmNone.staticflickr.com/None/52601933408_53ba7039d6.jpg", "author_id": "19159227@N06", "author_name": "Stan-the-Rocker"}, {"photo_id": 52600924862, "title": "Russian Hill - 010123 - 09 - Coolbrith Park View of Alcatraz Island", "latitude": 37.798, "longitude": -122.413759, "time_taken": "2023-01-01 17:13:04", "hour_taken": 17, "photo_url": "https://farmNone.staticflickr.com/None/52600924862_76f0a4206a.jpg", "author_id": "19159227@N06", "author_name": "Stan-the-Rocker"}, {"photo_id": 52601845370, "title": "Russian Hill - 010123 - 10 - Coolbrith Park View of Salesforce Tower", "latitude": 37.798, "longitude": -122.413759, "time_taken": "2023-01-01 17:14:11", "hour_taken": 17, "photo_url": "https://farmNone.staticflickr.com/None/52601845370_ec99ba8445.jpg", "author_id": "19159227@N06", "author_name": "Stan-the-Rocker"}, {"photo_id": 52600924837, "title": "Russian Hill - 010123 - 11 - Coolbrith Park View Towards SFOBB Eastern Span", "latitude": 37.798, "longitude": -122.413759, "time_taken": "2023-01-01 17:15:19", "hour_taken": 17, "photo_url": "https://farmNone.staticflickr.com/None/52600924837_5174a6eeb2.jpg", "author_id": "19159227@N06", "author_name": "Stan-the-Rocker"}, {"photo_id": 52600924782, "title": "Russian Hill - 010123 - 04 - Coolbrith Park - View Towards Financial District", "latitude": 37.798314, "longitude": -122.413598, "time_taken": "2023-01-01 17:05:27", "hour_taken": 17, "photo_url": "https://farmNone.staticflickr.com/None/52600924782_e7806ae385.jpg", "author_id": "19159227@N06", "author_name": "Stan-the-Rocker"}, {"photo_id": 52601845285, "title": "Russian Hill - 010123 - 12 - Coolbrith Park - View Towards Financial District", "latitude": 37.798, "longitude": -122.413759, "time_taken": "2023-01-01 17:15:38", "hour_taken": 17, "photo_url": "https://farmNone.staticflickr.com/None/52601845285_e775c53fe9.jpg", "author_id": "19159227@N06", "author_name": "Stan-the-Rocker"}, {"photo_id": 52601671579, "title": "My Christmas Present", "latitude": 37.927208, "longitude": -122.5215, "time_taken": "2023-01-01 16:53:23", "hour_taken": 16, "photo_url": "https://farmNone.staticflickr.com/None/52601671579_20a8904748.jpg", "author_id": "55747198@N00", "author_name": "Romair"}, {"photo_id": 52601431894, "title": "New Year bee", "latitude": 37.914248, "longitude": -122.302787, "time_taken": "2023-01-01 14:45:14", "hour_taken": 14, "photo_url": "https://farmNone.staticflickr.com/None/52601431894_3e5b380406.jpg", "author_id": "55154692@N05", "author_name": "TJ Gehling"}, {"photo_id": 52601419603, "title": "Winter (Jan) 2023", "latitude": 37.757386, "longitude": -122.427009, "time_taken": "2023-01-01 11:46:16", "hour_taken": 11, "photo_url": "https://farmNone.staticflickr.com/None/52601419603_e3bdf3ae1e.jpg", "author_id": "72677183@N00", "author_name": "Aindrila"}, {"photo_id": 52601360123, "title": "Palace of Fine Arts 1-23", "latitude": 37.803275, "longitude": -122.448534, "time_taken": "2023-01-01 11:18:37", "hour_taken": 11, "photo_url": "https://farmNone.staticflickr.com/None/52601360123_a665621834.jpg", "author_id": "30961337@N00", "author_name": "msmck"}, {"photo_id": 52600734714, "title": "New Year\u2019s Day 2023", "latitude": 37.615077, "longitude": -122.437981, "time_taken": "2023-01-01 08:34:33", "hour_taken": 8, "photo_url": "https://farmNone.staticflickr.com/None/52600734714_f4b7058888.jpg", "author_id": "8246078@N03", "author_name": "ayelienne"}, {"photo_id": 51794282660, "title": "Russian Hill - 010122 - 02 - Coolbrith Park", "latitude": 37.798195, "longitude": -122.412911, "time_taken": "2023-01-01 13:56:50", "hour_taken": 13, "photo_url": "https://farmNone.staticflickr.com/None/51794282660_328939034d.jpg", "author_id": "19159227@N06", "author_name": "Stan-the-Rocker"}, {"photo_id": 51793916029, "title": "Russian Hill - 010122 - 03 - Coolbrith Park", "latitude": 37.798195, "longitude": -122.412911, "time_taken": "2023-01-01 13:58:02", "hour_taken": 13, "photo_url": "https://farmNone.staticflickr.com/None/51793916029_926b84374b.jpg", "author_id": "19159227@N06", "author_name": "Stan-the-Rocker"}, {"photo_id": 51793544911, "title": "Russian Hill - 010122 - 05 - Coolbrith Park View of Salesforce Tower", "latitude": 37.798314, "longitude": -122.413598, "time_taken": "2023-01-01 14:02:50", "hour_taken": 14, "photo_url": "https://farmNone.staticflickr.com/None/51793544911_41b3741d25.jpg", "author_id": "19159227@N06", "author_name": "Stan-the-Rocker"}, {"photo_id": 51793662793, "title": "Russian Hill - 010122 - 06 - Coolbrith Park", "latitude": 37.798314, "longitude": -122.413598, "time_taken": "2023-01-01 14:05:34", "hour_taken": 14, "photo_url": "https://farmNone.staticflickr.com/None/51793662793_b83f79d535.jpg", "author_id": "19159227@N06", "author_name": "Stan-the-Rocker"}, {"photo_id": 51794282615, "title": "Russian Hill - 010122 - 07 - View of SFOBB Eastern Span", "latitude": 37.797958, "longitude": -122.414141, "time_taken": "2023-01-01 14:11:04", "hour_taken": 14, "photo_url": "https://farmNone.staticflickr.com/None/51794282615_7123d3ab76.jpg", "author_id": "19159227@N06", "author_name": "Stan-the-Rocker"}, {"photo_id": 51793915909, "title": "Russian Hill - 010122 - 10", "latitude": 37.798407, "longitude": -122.415561, "time_taken": "2023-01-01 14:14:24", "hour_taken": 14, "photo_url": "https://farmNone.staticflickr.com/None/51793915909_ce37ddac59.jpg", "author_id": "19159227@N06", "author_name": "Stan-the-Rocker"}, {"photo_id": 51793544741, "title": "Russian Hill - 010122 - 11", "latitude": 37.798407, "longitude": -122.415561, "time_taken": "2023-01-01 14:15:20", "hour_taken": 14, "photo_url": "https://farmNone.staticflickr.com/None/51793544741_0edb265f79.jpg", "author_id": "19159227@N06", "author_name": "Stan-the-Rocker"}, {"photo_id": 51793915879, "title": "Russian Hill - 010122 - 12", "latitude": 37.798407, "longitude": -122.415561, "time_taken": "2023-01-01 14:16:06", "hour_taken": 14, "photo_url": "https://farmNone.staticflickr.com/None/51793915879_9f2d09299c.jpg", "author_id": "19159227@N06", "author_name": "Stan-the-Rocker"}, {"photo_id": 51794282445, "title": "Russian Hill - 010122 - 15", "latitude": 37.801315, "longitude": -122.419896, "time_taken": "2023-01-01 14:28:34", "hour_taken": 14, "photo_url": "https://farmNone.staticflickr.com/None/51794282445_a959a79748.jpg", "author_id": "19159227@N06", "author_name": "Stan-the-Rocker"}, {"photo_id": 51793915779, "title": "Russian Hill - 010122 - 17", "latitude": 37.802036, "longitude": -122.419681, "time_taken": "2023-01-01 14:34:22", "hour_taken": 14, "photo_url": "https://farmNone.staticflickr.com/None/51793915779_f177937ca9.jpg", "author_id": "19159227@N06", "author_name": "Stan-the-Rocker"}, {"photo_id": 51792598297, "title": "Russian Hill - 010122 - 19", "latitude": 37.802036, "longitude": -122.419681, "time_taken": "2023-01-01 14:34:37", "hour_taken": 14, "photo_url": "https://farmNone.staticflickr.com/None/51792598297_46e3bf4f73.jpg", "author_id": "19159227@N06", "author_name": "Stan-the-Rocker"}, {"photo_id": 51793915664, "title": "Russian Hill - 010122 - 22", "latitude": 37.802036, "longitude": -122.419681, "time_taken": "2023-01-01 14:37:33", "hour_taken": 14, "photo_url": "https://farmNone.staticflickr.com/None/51793915664_3135e2a4b7.jpg", "author_id": "19159227@N06", "author_name": "Stan-the-Rocker"}, {"photo_id": 51792598237, "title": "Russian Hill - 010122 - 23", "latitude": 37.802036, "longitude": -122.419681, "time_taken": "2023-01-01 14:40:34", "hour_taken": 14, "photo_url": "https://farmNone.staticflickr.com/None/51792598237_f1a6d388c2.jpg", "author_id": "19159227@N06", "author_name": "Stan-the-Rocker"}, {"photo_id": 51792598137, "title": "Russian Hill - 010122 - 27", "latitude": 37.802036, "longitude": -122.419681, "time_taken": "2023-01-01 14:42:09", "hour_taken": 14, "photo_url": "https://farmNone.staticflickr.com/None/51792598137_6e781d119a.jpg", "author_id": "19159227@N06", "author_name": "Stan-the-Rocker"}, {"photo_id": 51793662258, "title": "Russian Hill - 010122 - 20", "latitude": 37.802036, "longitude": -122.419681, "time_taken": "2023-01-01 14:36:23", "hour_taken": 14, "photo_url": "https://farmNone.staticflickr.com/None/51793662258_044d7bea21.jpg", "author_id": "19159227@N06", "author_name": "Stan-the-Rocker"}, {"photo_id": 51793662238, "title": "Russian Hill - 010122 - 30 - Fay Park", "latitude": 37.802877, "longitude": -122.417856, "time_taken": "2023-01-01 14:53:38", "hour_taken": 14, "photo_url": "https://farmNone.staticflickr.com/None/51793662238_c9fccf977f.jpg", "author_id": "19159227@N06", "author_name": "Stan-the-Rocker"}, {"photo_id": 51794279750, "title": "North Beach - 010122 - 02", "latitude": 37.800086, "longitude": -122.410637, "time_taken": "2023-01-01 13:48:46", "hour_taken": 13, "photo_url": "https://farmNone.staticflickr.com/None/51794279750_e982e29912.jpg", "author_id": "19159227@N06", "author_name": "Stan-the-Rocker"}, {"photo_id": 52729154415, "title": "Diego Rivera's America, SFMOMA; 2023 Jan 2", "latitude": 37.786033, "longitude": -122.401039, "time_taken": "2023-01-02 12:53:14", "hour_taken": 12, "photo_url": "https://farmNone.staticflickr.com/None/52729154415_473a1134c1.jpg", "author_id": "13875847@N00", "author_name": "karlsbad"}, {"photo_id": 52666063374, "title": "Clarion Alley", "latitude": 37.762994, "longitude": -122.42132, "time_taken": "2023-01-01 16:33:56", "hour_taken": 16, "photo_url": "https://farmNone.staticflickr.com/None/52666063374_607d5de79d.jpg", "author_id": "44124466908@N01", "author_name": "Steve Rhodes"}, {"photo_id": 52666063364, "title": "Clarion Alley", "latitude": 37.763022, "longitude": -122.420792, "time_taken": "2023-01-01 16:36:34", "hour_taken": 16, "photo_url": "https://farmNone.staticflickr.com/None/52666063364_63af40b16c.jpg", "author_id": "44124466908@N01", "author_name": "Steve Rhodes"}, {"photo_id": 52619051902, "title": "South of Market", "latitude": 37.786066, "longitude": -122.401659, "time_taken": "2023-01-01 16:20:18", "hour_taken": 16, "photo_url": "https://farmNone.staticflickr.com/None/52619051902_620df85bf2.jpg", "author_id": "28287831@N00", "author_name": "kimbar/Thanks for 5.5 million views!"}, {"photo_id": 52603188019, "title": "Testing For Human Kindness", "latitude": 37.790833, "longitude": -122.400501, "time_taken": "2023-01-01 19:14:57", "hour_taken": 19, "photo_url": "https://farmNone.staticflickr.com/None/52603188019_4282915958.jpg", "author_id": "85853333@N00", "author_name": "Jeremy Brooks"}, {"photo_id": 52601428086, "title": "North Beach - 010123 - 06", "latitude": 37.799348, "longitude": -122.410165, "time_taken": "2023-01-01 17:25:05", "hour_taken": 17, "photo_url": "https://farmNone.staticflickr.com/None/52601428086_be2e699fdc.jpg", "author_id": "19159227@N06", "author_name": "Stan-the-Rocker"}, {"photo_id": 52601753393, "title": "Old GG Bridge Streamline Snack Bar 1-23", "latitude": 37.807608, "longitude": -122.475145, "time_taken": "2023-01-01 10:16:25", "hour_taken": 10, "photo_url": "https://farmNone.staticflickr.com/None/52601753393_081745285e.jpg", "author_id": "30961337@N00", "author_name": "msmck"}, {"photo_id": 51793662703, "title": "Russian Hill - 010122 - 08", "latitude": 37.798407, "longitude": -122.415561, "time_taken": "2023-01-01 14:14:04", "hour_taken": 14, "photo_url": "https://farmNone.staticflickr.com/None/51793662703_5bd0d6a50a.jpg", "author_id": "19159227@N06", "author_name": "Stan-the-Rocker"}, {"photo_id": 51794282580, "title": "Russian Hill - 010122 - 09", "latitude": 37.798407, "longitude": -122.415561, "time_taken": "2023-01-01 14:14:09", "hour_taken": 14, "photo_url": "https://farmNone.staticflickr.com/None/51794282580_97b845b2d7.jpg", "author_id": "19159227@N06", "author_name": "Stan-the-Rocker"}, {"photo_id": 51793662588, "title": "Russian Hill - 010122 - 13", "latitude": 37.798755, "longitude": -122.415658, "time_taken": "2023-01-01 14:17:28", "hour_taken": 14, "photo_url": "https://farmNone.staticflickr.com/None/51793662588_9e8b0641e5.jpg", "author_id": "19159227@N06", "author_name": "Stan-the-Rocker"}, {"photo_id": 51793662558, "title": "Russian Hill - 010122 - 14", "latitude": 37.798806, "longitude": -122.417267, "time_taken": "2023-01-01 14:21:29", "hour_taken": 14, "photo_url": "https://farmNone.staticflickr.com/None/51793662558_6eaca1b9af.jpg", "author_id": "19159227@N06", "author_name": "Stan-the-Rocker"}, {"photo_id": 51793662468, "title": "Russian Hill - 010122 - 18", "latitude": 37.802036, "longitude": -122.419681, "time_taken": "2023-01-01 14:34:25", "hour_taken": 14, "photo_url": "https://farmNone.staticflickr.com/None/51793662468_3ffbfaa85d.jpg", "author_id": "19159227@N06", "author_name": "Stan-the-Rocker"}, {"photo_id": 51793544556, "title": "Russian Hill - 010122 - 21", "latitude": 37.802036, "longitude": -122.419681, "time_taken": "2023-01-01 14:36:25", "hour_taken": 14, "photo_url": "https://farmNone.staticflickr.com/None/51793544556_86deba6ce8.jpg", "author_id": "19159227@N06", "author_name": "Stan-the-Rocker"}, {"photo_id": 51794282260, "title": "Russian Hill - 010122 - 24", "latitude": 37.802036, "longitude": -122.419681, "time_taken": "2023-01-01 14:40:52", "hour_taken": 14, "photo_url": "https://farmNone.staticflickr.com/None/51794282260_fc6a03cc48.jpg", "author_id": "19159227@N06", "author_name": "Stan-the-Rocker"}, {"photo_id": 51792598187, "title": "Russian Hill - 010122 - 25", "latitude": 37.802036, "longitude": -122.419681, "time_taken": "2023-01-01 14:41:21", "hour_taken": 14, "photo_url": "https://farmNone.staticflickr.com/None/51792598187_ab31e32305.jpg", "author_id": "19159227@N06", "author_name": "Stan-the-Rocker"}, {"photo_id": 51794282170, "title": "Russian Hill - 010122 - 26", "latitude": 37.802036, "longitude": -122.419681, "time_taken": "2023-01-01 14:41:33", "hour_taken": 14, "photo_url": "https://farmNone.staticflickr.com/None/51794282170_658f622e27.jpg", "author_id": "19159227@N06", "author_name": "Stan-the-Rocker"}, {"photo_id": 51794282135, "title": "Russian Hill - 010122 - 28", "latitude": 37.802036, "longitude": -122.419681, "time_taken": "2023-01-01 14:44:43", "hour_taken": 14, "photo_url": "https://farmNone.staticflickr.com/None/51794282135_366d209273.jpg", "author_id": "19159227@N06", "author_name": "Stan-the-Rocker"}, {"photo_id": 51792598077, "title": "Russian Hill - 010122 - 04 - Coolbrith Park", "latitude": 37.798195, "longitude": -122.412911, "time_taken": "2023-01-01 13:58:27", "hour_taken": 13, "photo_url": "https://farmNone.staticflickr.com/None/51792598077_73c696a06b.jpg", "author_id": "19159227@N06", "author_name": "Stan-the-Rocker"}, {"photo_id": 52690484320, "title": "The Creepy Man staring", "latitude": 37.801444, "longitude": -122.404673, "time_taken": "2023-01-03 15:47:18", "hour_taken": 15, "photo_url": "https://farmNone.staticflickr.com/None/52690484320_2bb9cd2c38.jpg", "author_id": "80234356@N04", "author_name": "alexanderferdinand"}, {"photo_id": 52658259644, "title": "Russian Hill and Lombard Street, San Francisco", "latitude": 37.802826, "longitude": -122.406647, "time_taken": "2023-01-03 15:36:19", "hour_taken": 15, "photo_url": "https://farmNone.staticflickr.com/None/52658259644_3e5edfa342.jpg", "author_id": "80234356@N04", "author_name": "alexanderferdinand"}, {"photo_id": 52645944553, "title": "Troy Holden photos on Mission St", "latitude": 37.74353, "longitude": -122.421164, "time_taken": "2023-01-03 16:41:33", "hour_taken": 16, "photo_url": "https://farmNone.staticflickr.com/None/52645944553_8b5f96775d.jpg", "author_id": "44124466908@N01", "author_name": "Steve Rhodes"}, {"photo_id": 52645473626, "title": "Troy Holden photos on Mission St", "latitude": 37.743519, "longitude": -122.421128, "time_taken": "2023-01-03 16:41:41", "hour_taken": 16, "photo_url": "https://farmNone.staticflickr.com/None/52645473626_fc244c93e8.jpg", "author_id": "44124466908@N01", "author_name": "Steve Rhodes"}, {"photo_id": 52645473646, "title": "Troy Holden photos on Mission St", "latitude": 37.743527, "longitude": -122.421145, "time_taken": "2023-01-03 16:41:38", "hour_taken": 16, "photo_url": "https://farmNone.staticflickr.com/None/52645473646_4ef8434824.jpg", "author_id": "44124466908@N01", "author_name": "Steve Rhodes"}, {"photo_id": 52645728039, "title": "Troy Holden photos on Mission St", "latitude": 37.743508, "longitude": -122.421142, "time_taken": "2023-01-03 16:47:20", "hour_taken": 16, "photo_url": "https://farmNone.staticflickr.com/None/52645728039_f4ca761914.jpg", "author_id": "44124466908@N01", "author_name": "Steve Rhodes"}, {"photo_id": 52645944513, "title": "Troy Holden photos on Mission St", "latitude": 37.743513, "longitude": -122.421137, "time_taken": "2023-01-03 16:41:45", "hour_taken": 16, "photo_url": "https://farmNone.staticflickr.com/None/52645944513_66b349e85b.jpg", "author_id": "44124466908@N01", "author_name": "Steve Rhodes"}, {"photo_id": 52644962547, "title": "Troy Holden photos on Mission St", "latitude": 37.743513, "longitude": -122.421128, "time_taken": "2023-01-03 16:41:44", "hour_taken": 16, "photo_url": "https://farmNone.staticflickr.com/None/52644962547_90f066c8a0.jpg", "author_id": "44124466908@N01", "author_name": "Steve Rhodes"}, {"photo_id": 52645944473, "title": "Troy Holden photos on Mission St", "latitude": 37.7435, "longitude": -122.421156, "time_taken": "2023-01-03 16:47:25", "hour_taken": 16, "photo_url": "https://farmNone.staticflickr.com/None/52645944473_7f2a3219ec.jpg", "author_id": "44124466908@N01", "author_name": "Steve Rhodes"}, {"photo_id": 52644962502, "title": "Troy Holden photos on Mission St", "latitude": 37.743505, "longitude": -122.421164, "time_taken": "2023-01-03 16:41:49", "hour_taken": 16, "photo_url": "https://farmNone.staticflickr.com/None/52644962502_2392b94d5e.jpg", "author_id": "44124466908@N01", "author_name": "Steve Rhodes"}, {"photo_id": 52644962457, "title": "Troy Holden photos on Mission St", "latitude": 37.743541, "longitude": -122.421198, "time_taken": "2023-01-03 16:46:51", "hour_taken": 16, "photo_url": "https://farmNone.staticflickr.com/None/52644962457_c4cf96ed96.jpg", "author_id": "44124466908@N01", "author_name": "Steve Rhodes"}, {"photo_id": 52645727989, "title": "Troy Holden photos on Mission St", "latitude": 37.743511, "longitude": -122.421203, "time_taken": "2023-01-03 16:41:54", "hour_taken": 16, "photo_url": "https://farmNone.staticflickr.com/None/52645727989_11d9f43d82.jpg", "author_id": "44124466908@N01", "author_name": "Steve Rhodes"}, {"photo_id": 52645727984, "title": "Troy Holden photos on Mission St", "latitude": 37.743519, "longitude": -122.421189, "time_taken": "2023-01-03 16:41:57", "hour_taken": 16, "photo_url": "https://farmNone.staticflickr.com/None/52645727984_a306168a56.jpg", "author_id": "44124466908@N01", "author_name": "Steve Rhodes"}, {"photo_id": 52644962432, "title": "Troy Holden photos on Mission St", "latitude": 37.743502, "longitude": -122.421148, "time_taken": "2023-01-03 16:47:27", "hour_taken": 16, "photo_url": "https://farmNone.staticflickr.com/None/52644962432_d90d74e9ac.jpg", "author_id": "44124466908@N01", "author_name": "Steve Rhodes"}, {"photo_id": 52645944398, "title": "Troy Holden photos on Mission St", "latitude": 37.743508, "longitude": -122.421148, "time_taken": "2023-01-03 16:47:02", "hour_taken": 16, "photo_url": "https://farmNone.staticflickr.com/None/52645944398_c36183e0c8.jpg", "author_id": "44124466908@N01", "author_name": "Steve Rhodes"}, {"photo_id": 52644962392, "title": "Troy Holden photos on Mission St", "latitude": 37.7435, "longitude": -122.421156, "time_taken": "2023-01-03 16:47:31", "hour_taken": 16, "photo_url": "https://farmNone.staticflickr.com/None/52644962392_f6677ceefd.jpg", "author_id": "44124466908@N01", "author_name": "Steve Rhodes"}, {"photo_id": 52645911735, "title": "Troy Holden photos on Mission St", "latitude": 37.743511, "longitude": -122.421134, "time_taken": "2023-01-03 16:47:16", "hour_taken": 16, "photo_url": "https://farmNone.staticflickr.com/None/52645911735_fc4d1475e5.jpg", "author_id": "44124466908@N01", "author_name": "Steve Rhodes"}, {"photo_id": 52645473416, "title": "Troy Holden photos on Mission St", "latitude": 37.743513, "longitude": -122.421125, "time_taken": "2023-01-03 16:47:14", "hour_taken": 16, "photo_url": "https://farmNone.staticflickr.com/None/52645473416_75a0465e21.jpg", "author_id": "44124466908@N01", "author_name": "Steve Rhodes"}, {"photo_id": 52645473421, "title": "Troy Holden photos on Mission St", "latitude": 37.743511, "longitude": -122.421142, "time_taken": "2023-01-03 16:47:11", "hour_taken": 16, "photo_url": "https://farmNone.staticflickr.com/None/52645473421_c133955336.jpg", "author_id": "44124466908@N01", "author_name": "Steve Rhodes"}, {"photo_id": 52644962317, "title": "Troy Holden photos on Mission St", "latitude": 37.743505, "longitude": -122.421123, "time_taken": "2023-01-03 16:47:08", "hour_taken": 16, "photo_url": "https://farmNone.staticflickr.com/None/52644962317_919f16787a.jpg", "author_id": "44124466908@N01", "author_name": "Steve Rhodes"}, {"photo_id": 52638105989, "title": "SFO", "latitude": 37.616852, "longitude": -122.382173, "time_taken": "2023-01-03 11:16:05", "hour_taken": 11, "photo_url": "https://farmNone.staticflickr.com/None/52638105989_b2ddc5f067.jpg", "author_id": "14469908@N00", "author_name": "frankfarm"}, {"photo_id": 52629822900, "title": "More new years day riding and posing", "latitude": 37.897053, "longitude": -122.311962, "time_taken": "2023-01-03 21:45:18", "hour_taken": 21, "photo_url": "https://farmNone.staticflickr.com/None/52629822900_c789db123e.jpg", "author_id": "26801123@N06", "author_name": "juliayncolemanphoto"}, {"photo_id": 52628866612, "title": "rainy washy splooshy", "latitude": 37.826385, "longitude": -122.249874, "time_taken": "2023-01-03 21:45:15", "hour_taken": 21, "photo_url": "https://farmNone.staticflickr.com/None/52628866612_2989cfbe45.jpg", "author_id": "26801123@N06", "author_name": "juliayncolemanphoto"}, {"photo_id": 52620311234, "title": "Aquatic Park getting a little too aquatic", "latitude": 37.85997, "longitude": -122.299527, "time_taken": "2023-01-03 21:45:17", "hour_taken": 21, "photo_url": "https://farmNone.staticflickr.com/None/52620311234_72a5d00542.jpg", "author_id": "26801123@N06", "author_name": "juliayncolemanphoto"}, {"photo_id": 52614427508, "title": "520 Serving The 510", "latitude": 37.919436, "longitude": -122.375335, "time_taken": "2023-01-03 13:56:18", "hour_taken": 13, "photo_url": "https://farmNone.staticflickr.com/None/52614427508_ccfa4a4142.jpg", "author_id": "186222972@N07", "author_name": "Oaksub"}, {"photo_id": 52610840539, "title": "crab time", "latitude": 37.808927, "longitude": -122.418228, "time_taken": "2023-01-03 15:03:57", "hour_taken": 15, "photo_url": "https://farmNone.staticflickr.com/None/52610840539_4809074a46.jpg", "author_id": "37996593020@N01", "author_name": "Jef Poskanzer"}, {"photo_id": 52608838066, "title": "#ZeroVision 7XIJ818", "latitude": 37.805922, "longitude": -122.405076, "time_taken": "2023-01-03 15:15:21", "hour_taken": 15, "photo_url": "https://farmNone.staticflickr.com/None/52608838066_f7935a917d.jpg", "author_id": "37996593020@N01", "author_name": "Jef Poskanzer"}, {"photo_id": 52609330683, "title": "#ZeroVision 9CCW954", "latitude": 37.795288, "longitude": -122.421742, "time_taken": "2023-01-03 14:21:27", "hour_taken": 14, "photo_url": "https://farmNone.staticflickr.com/None/52609330683_4973fe6968.jpg", "author_id": "37996593020@N01", "author_name": "Jef Poskanzer"}, {"photo_id": 52608332582, "title": "#ZeroVision 9CYF329", "latitude": 37.762333, "longitude": -122.421631, "time_taken": "2023-01-03 13:52:38", "hour_taken": 13, "photo_url": "https://farmNone.staticflickr.com/None/52608332582_cf3cdd6f88.jpg", "author_id": "37996593020@N01", "author_name": "Jef Poskanzer"}, {"photo_id": 52608367470, "title": "faceted jewel in the galleria parking lot", "latitude": 37.729161, "longitude": -122.475937, "time_taken": "2023-01-03 10:22:40", "hour_taken": 10, "photo_url": "https://farmNone.staticflickr.com/None/52608367470_90c782e0a5.jpg", "author_id": "13563767@N03", "author_name": "janeland"}, {"photo_id": 52606528833, "title": "Electra Meccanica [ 3 | 365 ]", "latitude": 37.767619, "longitude": -122.430145, "time_taken": "2023-01-03 19:04:47", "hour_taken": 19, "photo_url": "https://farmNone.staticflickr.com/None/52606528833_02d9dabcde.jpg", "author_id": "17607628@N00", "author_name": "O Caritas"}, {"photo_id": 52606026401, "title": "Courtney's Produce", "latitude": 37.767194, "longitude": -122.435531, "time_taken": "2023-01-03 21:50:48", "hour_taken": 21, "photo_url": "https://farmNone.staticflickr.com/None/52606026401_da0f77f3c2.jpg", "author_id": "17607628@N00", "author_name": "O Caritas"}, {"photo_id": 52606108359, "title": "companions", "latitude": 37.810061, "longitude": -122.477583, "time_taken": "2023-01-03 19:12:50", "hour_taken": 19, "photo_url": "https://farmNone.staticflickr.com/None/52606108359_1653640319.jpg", "author_id": "26801123@N06", "author_name": "juliayncolemanphoto"}, {"photo_id": 52605367642, "title": "2023 Bike 180: Day 002", "latitude": 37.859736, "longitude": -122.269128, "time_taken": "2023-01-03 13:27:11", "hour_taken": 13, "photo_url": "https://farmNone.staticflickr.com/None/52605367642_11574e80e0.jpg", "author_id": "50852290@N00", "author_name": "spamajama"}, {"photo_id": 52606272055, "title": "Golden Gate Park - 010323 - 01 - Bison Paddock", "latitude": 37.76906, "longitude": -122.498817, "time_taken": "2023-01-03 14:19:13", "hour_taken": 14, "photo_url": "https://farmNone.staticflickr.com/None/52606272055_e0153d6cd9.jpg", "author_id": "19159227@N06", "author_name": "Stan-the-Rocker"}, {"photo_id": 52606353463, "title": "Golden Gate Park - 010323 - 02 - Bison Paddock", "latitude": 37.76906, "longitude": -122.498817, "time_taken": "2023-01-03 14:19:33", "hour_taken": 14, "photo_url": "https://farmNone.staticflickr.com/None/52606353463_005288f477.jpg", "author_id": "19159227@N06", "author_name": "Stan-the-Rocker"}, {"photo_id": 52606109364, "title": "Golden Gate Park - 010323 - 03 - Bison Paddock", "latitude": 37.76906, "longitude": -122.498817, "time_taken": "2023-01-03 14:19:38", "hour_taken": 14, "photo_url": "https://farmNone.staticflickr.com/None/52606109364_2e5fee9d3b.jpg", "author_id": "19159227@N06", "author_name": "Stan-the-Rocker"}, {"photo_id": 52605852496, "title": "Golden Gate Park - 010323 - 05 - Bison Paddock", "latitude": 37.76906, "longitude": -122.498817, "time_taken": "2023-01-03 14:21:50", "hour_taken": 14, "photo_url": "https://farmNone.staticflickr.com/None/52605852496_9726a87735.jpg", "author_id": "19159227@N06", "author_name": "Stan-the-Rocker"}, {"photo_id": 52606353363, "title": "Golden Gate Park - 010323 - 06 - Bison Paddock", "latitude": 37.76906, "longitude": -122.498817, "time_taken": "2023-01-03 14:22:13", "hour_taken": 14, "photo_url": "https://farmNone.staticflickr.com/None/52606353363_a44647ff43.jpg", "author_id": "19159227@N06", "author_name": "Stan-the-Rocker"}, {"photo_id": 52605852461, "title": "Golden Gate Park - 010323 - 07 - Bison Paddock", "latitude": 37.76906, "longitude": -122.498817, "time_taken": "2023-01-03 14:22:17", "hour_taken": 14, "photo_url": "https://farmNone.staticflickr.com/None/52605852461_4012aee67d.jpg", "author_id": "19159227@N06", "author_name": "Stan-the-Rocker"}, {"photo_id": 52605350272, "title": "Golden Gate Park - 010323 - 09 - Bison Paddock", "latitude": 37.76906, "longitude": -122.498817, "time_taken": "2023-01-03 14:22:29", "hour_taken": 14, "photo_url": "https://farmNone.staticflickr.com/None/52605350272_e7732a21f3.jpg", "author_id": "19159227@N06", "author_name": "Stan-the-Rocker"}, {"photo_id": 52605350242, "title": "Golden Gate Park - 010323 - 12 - Bison Paddock", "latitude": 37.76906, "longitude": -122.498817, "time_taken": "2023-01-03 14:30:47", "hour_taken": 14, "photo_url": "https://farmNone.staticflickr.com/None/52605350242_3396dca210.jpg", "author_id": "19159227@N06", "author_name": "Stan-the-Rocker"}, {"photo_id": 52605852341, "title": "Golden Gate Park - 010323 - 13 - Bison Paddock", "latitude": 37.76906, "longitude": -122.498817, "time_taken": "2023-01-03 14:30:49", "hour_taken": 14, "photo_url": "https://farmNone.staticflickr.com/None/52605852341_5475ec8714.jpg", "author_id": "19159227@N06", "author_name": "Stan-the-Rocker"}, {"photo_id": 52606271790, "title": "Golden Gate Park - 010323 - 14 - Bison Paddock", "latitude": 37.76906, "longitude": -122.498817, "time_taken": "2023-01-03 14:31:45", "hour_taken": 14, "photo_url": "https://farmNone.staticflickr.com/None/52606271790_c8098b54c0.jpg", "author_id": "19159227@N06", "author_name": "Stan-the-Rocker"}, {"photo_id": 52606271775, "title": "Golden Gate Park - 010323 - 15 - Bison Paddock", "latitude": 37.76906, "longitude": -122.498817, "time_taken": "2023-01-03 14:33:17", "hour_taken": 14, "photo_url": "https://farmNone.staticflickr.com/None/52606271775_9ee66566ed.jpg", "author_id": "19159227@N06", "author_name": "Stan-the-Rocker"}, {"photo_id": 52606109109, "title": "Golden Gate Park - 010323 - 17 - Bison Paddock", "latitude": 37.76906, "longitude": -122.498817, "time_taken": "2023-01-03 14:37:55", "hour_taken": 14, "photo_url": "https://farmNone.staticflickr.com/None/52606109109_607864c38a.jpg", "author_id": "19159227@N06", "author_name": "Stan-the-Rocker"}, {"photo_id": 52606271620, "title": "Golden Gate Park - 010323 - 22 - Bison Paddock", "latitude": 37.76906, "longitude": -122.498817, "time_taken": "2023-01-03 14:44:19", "hour_taken": 14, "photo_url": "https://farmNone.staticflickr.com/None/52606271620_cf12c96a2c.jpg", "author_id": "19159227@N06", "author_name": "Stan-the-Rocker"}, {"photo_id": 52606271560, "title": "Golden Gate Park - 010323 - 24 - Bison Paddock", "latitude": 37.76906, "longitude": -122.498817, "time_taken": "2023-01-03 14:46:45", "hour_taken": 14, "photo_url": "https://farmNone.staticflickr.com/None/52606271560_2091e508a9.jpg", "author_id": "19159227@N06", "author_name": "Stan-the-Rocker"}, {"photo_id": 52606352953, "title": "Golden Gate Park - 010323 - 23 - Bison Paddock", "latitude": 37.76906, "longitude": -122.498817, "time_taken": "2023-01-03 14:44:30", "hour_taken": 14, "photo_url": "https://farmNone.staticflickr.com/None/52606352953_16826e5688.jpg", "author_id": "19159227@N06", "author_name": "Stan-the-Rocker"}, {"photo_id": 52606108879, "title": "Golden Gate Park - 010323 - 27 - Bison Paddock", "latitude": 37.76906, "longitude": -122.498817, "time_taken": "2023-01-03 14:51:27", "hour_taken": 14, "photo_url": "https://farmNone.staticflickr.com/None/52606108879_15fd4ebc62.jpg", "author_id": "19159227@N06", "author_name": "Stan-the-Rocker"}, {"photo_id": 52606352778, "title": "Golden Gate Park - 010323 - 28 - Anglers Lodge", "latitude": 37.768577, "longitude": -122.49798, "time_taken": "2023-01-03 14:55:21", "hour_taken": 14, "photo_url": "https://farmNone.staticflickr.com/None/52606352778_37140f4466.jpg", "author_id": "19159227@N06", "author_name": "Stan-the-Rocker"}, {"photo_id": 52605338622, "title": "Coit Tower Telegraph Hill - 010323 - 01", "latitude": 37.804369, "longitude": -122.408372, "time_taken": "2023-01-03 15:43:15", "hour_taken": 15, "photo_url": "https://farmNone.staticflickr.com/None/52605338622_bcf6ba13eb.jpg", "author_id": "19159227@N06", "author_name": "Stan-the-Rocker"}, {"photo_id": 52606097404, "title": "Coit Tower Telegraph Hill - 010323 - 02", "latitude": 37.804369, "longitude": -122.408372, "time_taken": "2023-01-03 15:43:35", "hour_taken": 15, "photo_url": "https://farmNone.staticflickr.com/None/52606097404_013f3a5404.jpg", "author_id": "19159227@N06", "author_name": "Stan-the-Rocker"}, {"photo_id": 52605840886, "title": "Coit Tower Telegraph Hill - 010323 - 03", "latitude": 37.804369, "longitude": -122.408372, "time_taken": "2023-01-03 15:43:46", "hour_taken": 15, "photo_url": "https://farmNone.staticflickr.com/None/52605840886_c2e65e62db.jpg", "author_id": "19159227@N06", "author_name": "Stan-the-Rocker"}, {"photo_id": 52606260460, "title": "Coit Tower Telegraph Hill - 010323 - 05", "latitude": 37.804369, "longitude": -122.408372, "time_taken": "2023-01-03 15:44:02", "hour_taken": 15, "photo_url": "https://farmNone.staticflickr.com/None/52606260460_3a82f1b1de.jpg", "author_id": "19159227@N06", "author_name": "Stan-the-Rocker"}, {"photo_id": 52606260405, "title": "Coit Tower Telegraph Hill - 010323 - 06", "latitude": 37.804369, "longitude": -122.408372, "time_taken": "2023-01-03 15:44:30", "hour_taken": 15, "photo_url": "https://farmNone.staticflickr.com/None/52606260405_23c28aa650.jpg", "author_id": "19159227@N06", "author_name": "Stan-the-Rocker"}, {"photo_id": 52605840801, "title": "Coit Tower Telegraph Hill - 010323 - 07 - View of SFOBB Eastern Span", "latitude": 37.803528, "longitude": -122.406309, "time_taken": "2023-01-03 15:48:58", "hour_taken": 15, "photo_url": "https://farmNone.staticflickr.com/None/52605840801_c791bc8196.jpg", "author_id": "19159227@N06", "author_name": "Stan-the-Rocker"}, {"photo_id": 52606341793, "title": "Coit Tower Telegraph Hill - 010323 - 08", "latitude": 37.802457, "longitude": -122.405862, "time_taken": "2023-01-03 15:54:13", "hour_taken": 15, "photo_url": "https://farmNone.staticflickr.com/None/52606341793_659b61608e.jpg", "author_id": "19159227@N06", "author_name": "Stan-the-Rocker"}, {"photo_id": 52605338332, "title": "Coit Tower Telegraph Hill - 010323 - 09 - View of SFOBB Eastern Span", "latitude": 37.802457, "longitude": -122.405862, "time_taken": "2023-01-03 15:57:40", "hour_taken": 15, "photo_url": "https://farmNone.staticflickr.com/None/52605338332_9bab39b038.jpg", "author_id": "19159227@N06", "author_name": "Stan-the-Rocker"}, {"photo_id": 52605840736, "title": "Coit Tower Telegraph Hill - 010323 - 10", "latitude": 37.802635, "longitude": -122.405679, "time_taken": "2023-01-03 15:58:28", "hour_taken": 15, "photo_url": "https://farmNone.staticflickr.com/None/52605840736_65c7e71cdc.jpg", "author_id": "19159227@N06", "author_name": "Stan-the-Rocker"}, {"photo_id": 52606260280, "title": "Coit Tower Telegraph Hill - 010323 - 11", "latitude": 37.802635, "longitude": -122.405679, "time_taken": "2023-01-03 16:02:13", "hour_taken": 16, "photo_url": "https://farmNone.staticflickr.com/None/52606260280_c1ec41a074.jpg", "author_id": "19159227@N06", "author_name": "Stan-the-Rocker"}, {"photo_id": 52606097074, "title": "Coit Tower Telegraph Hill - 010323 - 13", "latitude": 37.802907, "longitude": -122.406001, "time_taken": "2023-01-03 16:04:24", "hour_taken": 16, "photo_url": "https://farmNone.staticflickr.com/None/52606097074_9069cc3cbb.jpg", "author_id": "19159227@N06", "author_name": "Stan-the-Rocker"}, {"photo_id": 52605338242, "title": "Coit Tower Telegraph Hill - 010323 - 14 - Greenwich Street Stairs", "latitude": 37.802722, "longitude": -122.405412, "time_taken": "2023-01-03 16:09:21", "hour_taken": 16, "photo_url": "https://farmNone.staticflickr.com/None/52605338242_57f5ff019e.jpg", "author_id": "19159227@N06", "author_name": "Stan-the-Rocker"}, {"photo_id": 52606341668, "title": "Coit Tower Telegraph Hill - 010323 - 15 - Greenwich Street Stairs", "latitude": 37.802883, "longitude": -122.405165, "time_taken": "2023-01-03 16:11:58", "hour_taken": 16, "photo_url": "https://farmNone.staticflickr.com/None/52606341668_e120a916e6.jpg", "author_id": "19159227@N06", "author_name": "Stan-the-Rocker"}, {"photo_id": 52606260195, "title": "Coit Tower Telegraph Hill - 010323 - 16 - Filbert Street Stairs - Grace Merchant Garden", "latitude": 37.802112, "longitude": -122.403867, "time_taken": "2023-01-03 16:16:54", "hour_taken": 16, "photo_url": "https://farmNone.staticflickr.com/None/52606260195_5eef898b0c.jpg", "author_id": "19159227@N06", "author_name": "Stan-the-Rocker"}, {"photo_id": 52606096964, "title": "Coit Tower Telegraph Hill - 010323 - 17 - Filbert Street Stairs - Grace Merchant Garden", "latitude": 37.802112, "longitude": -122.403867, "time_taken": "2023-01-03 16:19:00", "hour_taken": 16, "photo_url": "https://farmNone.staticflickr.com/None/52606096964_d551c446f1.jpg", "author_id": "19159227@N06", "author_name": "Stan-the-Rocker"}, {"photo_id": 52605840591, "title": "Coit Tower Telegraph Hill - 010323 - 18 - Filbert Street Stairs - Grace Merchant Garden", "latitude": 37.802112, "longitude": -122.403867, "time_taken": "2023-01-03 16:20:06", "hour_taken": 16, "photo_url": "https://farmNone.staticflickr.com/None/52605840591_b07038a12b.jpg", "author_id": "19159227@N06", "author_name": "Stan-the-Rocker"}, {"photo_id": 52606260130, "title": "Coit Tower Telegraph Hill - 010323 - 19 - Filbert Street Stairs - Grace Merchant Garden", "latitude": 37.802112, "longitude": -122.403867, "time_taken": "2023-01-03 16:21:38", "hour_taken": 16, "photo_url": "https://farmNone.staticflickr.com/None/52606260130_b3f49b5962.jpg", "author_id": "19159227@N06", "author_name": "Stan-the-Rocker"}, {"photo_id": 52606096924, "title": "Coit Tower Telegraph Hill - 010323 - 21 - Filbert Street Stairs", "latitude": 37.802112, "longitude": -122.403867, "time_taken": "2023-01-03 16:22:23", "hour_taken": 16, "photo_url": "https://farmNone.staticflickr.com/None/52606096924_ac177e2d5c.jpg", "author_id": "19159227@N06", "author_name": "Stan-the-Rocker"}, {"photo_id": 52606341543, "title": "Coit Tower Telegraph Hill - 010323 - 22 - Filbert Street Stairs", "latitude": 37.802104, "longitude": -122.404307, "time_taken": "2023-01-03 16:23:46", "hour_taken": 16, "photo_url": "https://farmNone.staticflickr.com/None/52606341543_80ab8f1dba.jpg", "author_id": "19159227@N06", "author_name": "Stan-the-Rocker"}, {"photo_id": 52606096884, "title": "Coit Tower Telegraph Hill - 010323 - 23 - Filbert Street Stairs", "latitude": 37.802104, "longitude": -122.404307, "time_taken": "2023-01-03 16:24:43", "hour_taken": 16, "photo_url": "https://farmNone.staticflickr.com/None/52606096884_52952026a4.jpg", "author_id": "19159227@N06", "author_name": "Stan-the-Rocker"}, {"photo_id": 52606096834, "title": "Coit Tower Telegraph Hill - 010323 - 24", "latitude": 37.80151, "longitude": -122.404446, "time_taken": "2023-01-03 16:26:40", "hour_taken": 16, "photo_url": "https://farmNone.staticflickr.com/None/52606096834_5c2b33e65b.jpg", "author_id": "19159227@N06", "author_name": "Stan-the-Rocker"}, {"photo_id": 52605840496, "title": "Coit Tower Telegraph Hill - 010323 - 25", "latitude": 37.801137, "longitude": -122.40392, "time_taken": "2023-01-03 16:27:43", "hour_taken": 16, "photo_url": "https://farmNone.staticflickr.com/None/52605840496_de72e98761.jpg", "author_id": "19159227@N06", "author_name": "Stan-the-Rocker"}, {"photo_id": 52605337992, "title": "Coit Tower Telegraph Hill - 010323 - 26", "latitude": 37.801137, "longitude": -122.40392, "time_taken": "2023-01-03 16:28:48", "hour_taken": 16, "photo_url": "https://farmNone.staticflickr.com/None/52605337992_156271a449.jpg", "author_id": "19159227@N06", "author_name": "Stan-the-Rocker"}, {"photo_id": 52606096779, "title": "Coit Tower Telegraph Hill - 010323 - 28", "latitude": 37.801095, "longitude": -122.404489, "time_taken": "2023-01-03 16:30:50", "hour_taken": 16, "photo_url": "https://farmNone.staticflickr.com/None/52606096779_55163bed3e.jpg", "author_id": "19159227@N06", "author_name": "Stan-the-Rocker"}, {"photo_id": 52605840451, "title": "Coit Tower Telegraph Hill - 010323 - 29", "latitude": 37.801095, "longitude": -122.404489, "time_taken": "2023-01-03 16:31:53", "hour_taken": 16, "photo_url": "https://farmNone.staticflickr.com/None/52605840451_04fdf4acba.jpg", "author_id": "19159227@N06", "author_name": "Stan-the-Rocker"}, {"photo_id": 52605337967, "title": "Coit Tower Telegraph Hill - 010323 - 30", "latitude": 37.801095, "longitude": -122.404489, "time_taken": "2023-01-03 16:32:40", "hour_taken": 16, "photo_url": "https://farmNone.staticflickr.com/None/52605337967_651e9c2418.jpg", "author_id": "19159227@N06", "author_name": "Stan-the-Rocker"}, {"photo_id": 52605840416, "title": "Coit Tower Telegraph Hill - 010323 - 31", "latitude": 37.800883, "longitude": -122.406055, "time_taken": "2023-01-03 16:36:05", "hour_taken": 16, "photo_url": "https://farmNone.staticflickr.com/None/52605840416_e052cb8523.jpg", "author_id": "19159227@N06", "author_name": "Stan-the-Rocker"}, {"photo_id": 52606259905, "title": "Coit Tower Telegraph Hill - 010323 - 33", "latitude": 37.800883, "longitude": -122.406055, "time_taken": "2023-01-03 16:37:05", "hour_taken": 16, "photo_url": "https://farmNone.staticflickr.com/None/52606259905_940cb7d4fe.jpg", "author_id": "19159227@N06", "author_name": "Stan-the-Rocker"}, {"photo_id": 52605337872, "title": "Coit Tower Telegraph Hill - 010323 - 34", "latitude": 37.800883, "longitude": -122.406055, "time_taken": "2023-01-03 16:37:46", "hour_taken": 16, "photo_url": "https://farmNone.staticflickr.com/None/52605337872_0fd24ae714.jpg", "author_id": "19159227@N06", "author_name": "Stan-the-Rocker"}, {"photo_id": 52605337847, "title": "Coit Tower Telegraph Hill - 010323 - 35", "latitude": 37.800883, "longitude": -122.406055, "time_taken": "2023-01-03 16:38:53", "hour_taken": 16, "photo_url": "https://farmNone.staticflickr.com/None/52605337847_a42125b72e.jpg", "author_id": "19159227@N06", "author_name": "Stan-the-Rocker"}, {"photo_id": 52606341303, "title": "Coit Tower Telegraph Hill - 010323 - 36", "latitude": 37.800883, "longitude": -122.406055, "time_taken": "2023-01-03 16:39:21", "hour_taken": 16, "photo_url": "https://farmNone.staticflickr.com/None/52606341303_a732b952a0.jpg", "author_id": "19159227@N06", "author_name": "Stan-the-Rocker"}, {"photo_id": 52605840296, "title": "Coit Tower Telegraph Hill - 010323 - 04", "latitude": 37.804369, "longitude": -122.408372, "time_taken": "2023-01-03 15:43:53", "hour_taken": 15, "photo_url": "https://farmNone.staticflickr.com/None/52605840296_512487517f.jpg", "author_id": "19159227@N06", "author_name": "Stan-the-Rocker"}, {"photo_id": 52606096594, "title": "Coit Tower Telegraph Hill - 010323 - 12", "latitude": 37.802907, "longitude": -122.406001, "time_taken": "2023-01-03 16:03:52", "hour_taken": 16, "photo_url": "https://farmNone.staticflickr.com/None/52606096594_ca2b86234d.jpg", "author_id": "19159227@N06", "author_name": "Stan-the-Rocker"}, {"photo_id": 52606096564, "title": "Coit Tower Telegraph Hill - 010323 - 27", "latitude": 37.801095, "longitude": -122.404489, "time_taken": "2023-01-03 16:29:18", "hour_taken": 16, "photo_url": "https://farmNone.staticflickr.com/None/52606096564_ffb344fdd8.jpg", "author_id": "19159227@N06", "author_name": "Stan-the-Rocker"}, {"photo_id": 52605840251, "title": "Coit Tower Telegraph Hill - 010323 - 20 - Filbert Street Stairs - Grace Merchant Garden", "latitude": 37.802112, "longitude": -122.403867, "time_taken": "2023-01-03 16:21:52", "hour_taken": 16, "photo_url": "https://farmNone.staticflickr.com/None/52605840251_5b933bc4b2.jpg", "author_id": "19159227@N06", "author_name": "Stan-the-Rocker"}, {"photo_id": 52606259790, "title": "Coit Tower Telegraph Hill - 010323 - 37", "latitude": 37.800883, "longitude": -122.406055, "time_taken": "2023-01-03 16:39:26", "hour_taken": 16, "photo_url": "https://farmNone.staticflickr.com/None/52606259790_a03abda8ff.jpg", "author_id": "19159227@N06", "author_name": "Stan-the-Rocker"}, {"photo_id": 52605971210, "title": "Sarahbeth Manley in NY Times Year in Photos 2022 Sunday Jan 1, 2023", "latitude": 37.738808, "longitude": -122.416114, "time_taken": "2023-01-03 15:52:50", "hour_taken": 15, "photo_url": "https://farmNone.staticflickr.com/None/52605971210_be17f812d0.jpg", "author_id": "44124466908@N01", "author_name": "Steve Rhodes"}, {"photo_id": 52606045403, "title": "Nina Riggio in NY Times Year in Photos 2022 Sunday Jan 1, 2023", "latitude": 37.738872, "longitude": -122.416114, "time_taken": "2023-01-03 15:53:56", "hour_taken": 15, "photo_url": "https://farmNone.staticflickr.com/None/52606045403_b61fac0b3f.jpg", "author_id": "44124466908@N01", "author_name": "Steve Rhodes"}, {"photo_id": 52624686588, "title": "20230104_011802", "latitude": 37.761819, "longitude": -122.435323, "time_taken": "2023-01-04 01:18:03", "hour_taken": 1, "photo_url": "https://farmNone.staticflickr.com/None/52624686588_6ba282ea9c.jpg", "author_id": "57453294@N00", "author_name": "sftrajan"}, {"photo_id": 52606419263, "title": "", "latitude": 37.787933, "longitude": -122.4075, "time_taken": "2023-01-03 21:12:16", "hour_taken": 21, "photo_url": "https://farmNone.staticflickr.com/None/52606419263_16cea40ced.jpg", "author_id": "57453294@N00", "author_name": "sftrajan"}, {"photo_id": 52606271995, "title": "Golden Gate Park - 010323 - 04 - Bison Paddock", "latitude": 37.76906, "longitude": -122.498817, "time_taken": "2023-01-03 14:21:02", "hour_taken": 14, "photo_url": "https://farmNone.staticflickr.com/None/52606271995_f295f51de1.jpg", "author_id": "19159227@N06", "author_name": "Stan-the-Rocker"}, {"photo_id": 52605852431, "title": "Golden Gate Park - 010323 - 08 - Bison Paddock", "latitude": 37.76906, "longitude": -122.498817, "time_taken": "2023-01-03 14:22:21", "hour_taken": 14, "photo_url": "https://farmNone.staticflickr.com/None/52605852431_6ecc481c59.jpg", "author_id": "19159227@N06", "author_name": "Stan-the-Rocker"}, {"photo_id": 52606109124, "title": "Golden Gate Park - 010323 - 16 - Bison Paddock", "latitude": 37.76906, "longitude": -122.498817, "time_taken": "2023-01-03 14:33:39", "hour_taken": 14, "photo_url": "https://farmNone.staticflickr.com/None/52606109124_d1c7d3165a.jpg", "author_id": "19159227@N06", "author_name": "Stan-the-Rocker"}, {"photo_id": 52605350072, "title": "Golden Gate Park - 010323 - 18 - Bison Paddock", "latitude": 37.76906, "longitude": -122.498817, "time_taken": "2023-01-03 14:40:20", "hour_taken": 14, "photo_url": "https://farmNone.staticflickr.com/None/52605350072_6019a31a77.jpg", "author_id": "19159227@N06", "author_name": "Stan-the-Rocker"}, {"photo_id": 52605852146, "title": "Golden Gate Park - 010323 - 19 - Bison Paddock", "latitude": 37.76906, "longitude": -122.498817, "time_taken": "2023-01-03 14:41:41", "hour_taken": 14, "photo_url": "https://farmNone.staticflickr.com/None/52605852146_fa931848ac.jpg", "author_id": "19159227@N06", "author_name": "Stan-the-Rocker"}, {"photo_id": 52606271695, "title": "Golden Gate Park - 010323 - 20 - Bison Paddock", "latitude": 37.76906, "longitude": -122.498817, "time_taken": "2023-01-03 14:41:50", "hour_taken": 14, "photo_url": "https://farmNone.staticflickr.com/None/52606271695_09dbc04c7e.jpg", "author_id": "19159227@N06", "author_name": "Stan-the-Rocker"}, {"photo_id": 52606353003, "title": "Golden Gate Park - 010323 - 21 - Bison Paddock", "latitude": 37.76906, "longitude": -122.498817, "time_taken": "2023-01-03 14:43:30", "hour_taken": 14, "photo_url": "https://farmNone.staticflickr.com/None/52606353003_f00bb32c2e.jpg", "author_id": "19159227@N06", "author_name": "Stan-the-Rocker"}, {"photo_id": 52605349932, "title": "Golden Gate Park - 010323 - 25 - Bison Paddock", "latitude": 37.76906, "longitude": -122.498817, "time_taken": "2023-01-03 14:46:48", "hour_taken": 14, "photo_url": "https://farmNone.staticflickr.com/None/52605349932_2765cc724a.jpg", "author_id": "19159227@N06", "author_name": "Stan-the-Rocker"}, {"photo_id": 52606352888, "title": "Golden Gate Park - 010323 - 26 - Bison Paddock", "latitude": 37.76906, "longitude": -122.498817, "time_taken": "2023-01-03 14:48:46", "hour_taken": 14, "photo_url": "https://farmNone.staticflickr.com/None/52606352888_447b960d20.jpg", "author_id": "19159227@N06", "author_name": "Stan-the-Rocker"}, {"photo_id": 52605349762, "title": "Golden Gate Park - 010323 - 11 - Bison Paddock", "latitude": 37.76906, "longitude": -122.498817, "time_taken": "2023-01-03 14:27:39", "hour_taken": 14, "photo_url": "https://farmNone.staticflickr.com/None/52605349762_6f24caa243.jpg", "author_id": "19159227@N06", "author_name": "Stan-the-Rocker"}, {"photo_id": 52605349727, "title": "Golden Gate Park - 010323 - 29 - Anglers Lodge", "latitude": 37.768552, "longitude": -122.497218, "time_taken": "2023-01-03 14:58:33", "hour_taken": 14, "photo_url": "https://farmNone.staticflickr.com/None/52605349727_11c0c54e09.jpg", "author_id": "19159227@N06", "author_name": "Stan-the-Rocker"}, {"photo_id": 52709989042, "title": "Light and dark Clouds 20230105-164414", "latitude": 37.725925, "longitude": -122.427233, "time_taken": "2023-01-05 16:44:14", "hour_taken": 16, "photo_url": "https://farmNone.staticflickr.com/None/52709989042_44be8911af.jpg", "author_id": "31603030@N08", "author_name": "Charlie Wambeke Photography"}, {"photo_id": 52634302994, "title": "", "latitude": 37.765025, "longitude": -122.242234, "time_taken": "2023-01-06 12:06:30", "hour_taken": 12, "photo_url": "https://farmNone.staticflickr.com/None/52634302994_446a99d5aa.jpg", "author_id": "74877815@N05", "author_name": "matthew valencia"}, {"photo_id": 52634529903, "title": "", "latitude": 37.765025, "longitude": -122.242212, "time_taken": "2023-01-06 12:06:35", "hour_taken": 12, "photo_url": "https://farmNone.staticflickr.com/None/52634529903_425c4c3eb9.jpg", "author_id": "74877815@N05", "author_name": "matthew valencia"}, {"photo_id": 52634484055, "title": "", "latitude": 37.765025, "longitude": -122.242212, "time_taken": "2023-01-06 12:06:36", "hour_taken": 12, "photo_url": "https://farmNone.staticflickr.com/None/52634484055_c895cda32c.jpg", "author_id": "74877815@N05", "author_name": "matthew valencia"}, {"photo_id": 52634295104, "title": "", "latitude": 37.898338, "longitude": -122.304681, "time_taken": "2023-01-05 11:47:39", "hour_taken": 11, "photo_url": "https://farmNone.staticflickr.com/None/52634295104_f29876718c.jpg", "author_id": "74877815@N05", "author_name": "matthew valencia"}, {"photo_id": 52634037691, "title": "", "latitude": 37.905597, "longitude": -122.291856, "time_taken": "2023-01-05 11:47:20", "hour_taken": 11, "photo_url": "https://farmNone.staticflickr.com/None/52634037691_34d761c87a.jpg", "author_id": "74877815@N05", "author_name": "matthew valencia"}, {"photo_id": 52633525687, "title": "", "latitude": 37.898494, "longitude": -122.304887, "time_taken": "2023-01-05 11:48:14", "hour_taken": 11, "photo_url": "https://farmNone.staticflickr.com/None/52633525687_2bf4f0e08a.jpg", "author_id": "74877815@N05", "author_name": "matthew valencia"}, {"photo_id": 52634476550, "title": "", "latitude": 37.90548, "longitude": -122.294906, "time_taken": "2023-01-05 11:39:50", "hour_taken": 11, "photo_url": "https://farmNone.staticflickr.com/None/52634476550_ab50f234d2.jpg", "author_id": "74877815@N05", "author_name": "matthew valencia"}, {"photo_id": 52634037621, "title": "", "latitude": 37.898308, "longitude": -122.301812, "time_taken": "2023-01-05 11:39:54", "hour_taken": 11, "photo_url": "https://farmNone.staticflickr.com/None/52634037621_5f1a264dc9.jpg", "author_id": "74877815@N05", "author_name": "matthew valencia"}, {"photo_id": 52634295044, "title": "", "latitude": 37.898358, "longitude": -122.304537, "time_taken": "2023-01-05 11:47:26", "hour_taken": 11, "photo_url": "https://farmNone.staticflickr.com/None/52634295044_1622397236.jpg", "author_id": "74877815@N05", "author_name": "matthew valencia"}, {"photo_id": 52634521893, "title": "", "latitude": 37.905502, "longitude": -122.294945, "time_taken": "2023-01-05 11:30:44", "hour_taken": 11, "photo_url": "https://farmNone.staticflickr.com/None/52634521893_0a3a75bf0b.jpg", "author_id": "74877815@N05", "author_name": "matthew valencia"}, {"photo_id": 52634521853, "title": "", "latitude": 37.898302, "longitude": -122.301812, "time_taken": "2023-01-05 11:39:56", "hour_taken": 11, "photo_url": "https://farmNone.staticflickr.com/None/52634521853_a5d93b8d1e.jpg", "author_id": "74877815@N05", "author_name": "matthew valencia"}, {"photo_id": 52633525652, "title": "", "latitude": 37.898352, "longitude": -122.305284, "time_taken": "2023-01-05 11:49:00", "hour_taken": 11, "photo_url": "https://farmNone.staticflickr.com/None/52633525652_9539fc9b4b.jpg", "author_id": "74877815@N05", "author_name": "matthew valencia"}, {"photo_id": 52634295014, "title": "", "latitude": 37.898338, "longitude": -122.30532, "time_taken": "2023-01-05 11:49:06", "hour_taken": 11, "photo_url": "https://farmNone.staticflickr.com/None/52634295014_50eec052b5.jpg", "author_id": "74877815@N05", "author_name": "matthew valencia"}, {"photo_id": 52634294979, "title": "", "latitude": 37.89848, "longitude": -122.304742, "time_taken": "2023-01-05 11:47:54", "hour_taken": 11, "photo_url": "https://farmNone.staticflickr.com/None/52634294979_f92095abae.jpg", "author_id": "74877815@N05", "author_name": "matthew valencia"}, {"photo_id": 52634294869, "title": "", "latitude": 37.898341, "longitude": -122.304528, "time_taken": "2023-01-05 11:47:22", "hour_taken": 11, "photo_url": "https://farmNone.staticflickr.com/None/52634294869_8a08fe3684.jpg", "author_id": "74877815@N05", "author_name": "matthew valencia"}, {"photo_id": 52634521673, "title": "", "latitude": 37.898491, "longitude": -122.304734, "time_taken": "2023-01-05 11:47:59", "hour_taken": 11, "photo_url": "https://farmNone.staticflickr.com/None/52634521673_0e5b71052b.jpg", "author_id": "74877815@N05", "author_name": "matthew valencia"}, {"photo_id": 52633525502, "title": "", "latitude": 37.898483, "longitude": -122.304742, "time_taken": "2023-01-05 11:47:56", "hour_taken": 11, "photo_url": "https://farmNone.staticflickr.com/None/52633525502_c23fedc1b9.jpg", "author_id": "74877815@N05", "author_name": "matthew valencia"}, {"photo_id": 52634036956, "title": "", "latitude": 37.905597, "longitude": -122.291856, "time_taken": "2023-01-05 11:47:20", "hour_taken": 11, "photo_url": "https://farmNone.staticflickr.com/None/52634036956_b0af1fbbab.jpg", "author_id": "74877815@N05", "author_name": "matthew valencia"}, {"photo_id": 52634036961, "title": "", "latitude": 37.898338, "longitude": -122.304681, "time_taken": "2023-01-05 11:47:39", "hour_taken": 11, "photo_url": "https://farmNone.staticflickr.com/None/52634036961_f7d0a5fd5c.jpg", "author_id": "74877815@N05", "author_name": "matthew valencia"}, {"photo_id": 52634521108, "title": "", "latitude": 37.898455, "longitude": -122.302881, "time_taken": "2023-01-05 11:30:48", "hour_taken": 11, "photo_url": "https://farmNone.staticflickr.com/None/52634521108_390c42f672.jpg", "author_id": "74877815@N05", "author_name": "matthew valencia"}, {"photo_id": 52634036936, "title": "", "latitude": 37.90548, "longitude": -122.294906, "time_taken": "2023-01-05 11:39:50", "hour_taken": 11, "photo_url": "https://farmNone.staticflickr.com/None/52634036936_57cd47c51b.jpg", "author_id": "74877815@N05", "author_name": "matthew valencia"}, {"photo_id": 52634521093, "title": "", "latitude": 37.898308, "longitude": -122.301812, "time_taken": "2023-01-05 11:39:54", "hour_taken": 11, "photo_url": "https://farmNone.staticflickr.com/None/52634521093_6531d55071.jpg", "author_id": "74877815@N05", "author_name": "matthew valencia"}, {"photo_id": 52634294309, "title": "", "latitude": 37.898372, "longitude": -122.305275, "time_taken": "2023-01-05 11:49:03", "hour_taken": 11, "photo_url": "https://farmNone.staticflickr.com/None/52634294309_c41cb16fa9.jpg", "author_id": "74877815@N05", "author_name": "matthew valencia"}, {"photo_id": 52634036921, "title": "", "latitude": 37.898308, "longitude": -122.305564, "time_taken": "2023-01-05 11:49:27", "hour_taken": 11, "photo_url": "https://farmNone.staticflickr.com/None/52634036921_664353b392.jpg", "author_id": "74877815@N05", "author_name": "matthew valencia"}, {"photo_id": 52634294289, "title": "", "latitude": 37.898358, "longitude": -122.304537, "time_taken": "2023-01-05 11:47:26", "hour_taken": 11, "photo_url": "https://farmNone.staticflickr.com/None/52634294289_f0d84738f2.jpg", "author_id": "74877815@N05", "author_name": "matthew valencia"}, {"photo_id": 52634521103, "title": "", "latitude": 37.905502, "longitude": -122.294945, "time_taken": "2023-01-05 11:30:44", "hour_taken": 11, "photo_url": "https://farmNone.staticflickr.com/None/52634521103_111756bc2c.jpg", "author_id": "74877815@N05", "author_name": "matthew valencia"}, {"photo_id": 52634521063, "title": "", "latitude": 37.898338, "longitude": -122.30532, "time_taken": "2023-01-05 11:49:06", "hour_taken": 11, "photo_url": "https://farmNone.staticflickr.com/None/52634521063_3e384b0ef5.jpg", "author_id": "74877815@N05", "author_name": "matthew valencia"}, {"photo_id": 52634475730, "title": "", "latitude": 37.898352, "longitude": -122.305284, "time_taken": "2023-01-05 11:49:00", "hour_taken": 11, "photo_url": "https://farmNone.staticflickr.com/None/52634475730_0e35ac78f7.jpg", "author_id": "74877815@N05", "author_name": "matthew valencia"}, {"photo_id": 52634294239, "title": "", "latitude": 37.898302, "longitude": -122.301812, "time_taken": "2023-01-05 11:39:56", "hour_taken": 11, "photo_url": "https://farmNone.staticflickr.com/None/52634294239_cb6c81f3a7.jpg", "author_id": "74877815@N05", "author_name": "matthew valencia"}, {"photo_id": 52634521028, "title": "", "latitude": 37.89848, "longitude": -122.304742, "time_taken": "2023-01-05 11:47:54", "hour_taken": 11, "photo_url": "https://farmNone.staticflickr.com/None/52634521028_1fb1537d35.jpg", "author_id": "74877815@N05", "author_name": "matthew valencia"}, {"photo_id": 52633524807, "title": "", "latitude": 37.898491, "longitude": -122.304734, "time_taken": "2023-01-05 11:47:59", "hour_taken": 11, "photo_url": "https://farmNone.staticflickr.com/None/52633524807_10b3b977c9.jpg", "author_id": "74877815@N05", "author_name": "matthew valencia"}, {"photo_id": 52634520913, "title": "", "latitude": 37.898341, "longitude": -122.304528, "time_taken": "2023-01-05 11:47:22", "hour_taken": 11, "photo_url": "https://farmNone.staticflickr.com/None/52634520913_0f1e210f04.jpg", "author_id": "74877815@N05", "author_name": "matthew valencia"}, {"photo_id": 52634036796, "title": "", "latitude": 37.898483, "longitude": -122.304742, "time_taken": "2023-01-05 11:47:56", "hour_taken": 11, "photo_url": "https://farmNone.staticflickr.com/None/52634036796_f8278caecd.jpg", "author_id": "74877815@N05", "author_name": "matthew valencia"}, {"photo_id": 52634466740, "title": "", "latitude": 37.899191, "longitude": -122.307259, "time_taken": "2023-01-05 11:06:18", "hour_taken": 11, "photo_url": "https://farmNone.staticflickr.com/None/52634466740_52427618c2.jpg", "author_id": "74877815@N05", "author_name": "matthew valencia"},